{
"type": "FeatureCollection",
"crs": { "type": "name", "properties": { "name": "urn:ogc:def:crs:OGC:1.3:CRS84" } },
"features": [
{ "type": "Feature", "properties": { "Nat_ID": "1AA01", "Water Body Name": "Malaba", "Sub-Region Office": "Kitale", "Rating Curve": "Yes" }, "geometry": { "type": "Point", "coordinates": [ 34.26824, 0.63742 ] } },
{ "type": "Feature", "properties": { "Nat_ID": "1AB01", "Water Body Name": "Malakisi", "Sub-Region Office": "Kitale", "Rating Curve": "Yes" }, "geometry": { "type": "Point", "coordinates": [ 34.52659, 0.83867 ] } },
{ "type": "Feature", "properties": { "Nat_ID": "1AD02", "Water Body Name": "Malakisi", "Sub-Region Office": "Kitale", "Rating Curve": "Yes" }, "geometry": { "type": "Point", "coordinates": [ 34.34159, 0.62266 ] } },
{ "type": "Feature", "properties": { "Nat_ID": "1AE01", "Water Body Name": "Alupe", "Sub-Region Office": "Kitale", "Rating Curve": "Yes" }, "geometry": { "type": "Point", "coordinates": [ 34.11801, 0.50858 ] } },
{ "type": "Feature", "properties": { "Nat_ID": "1AH01", "Water Body Name": "Sio River", "Sub-Region Office": "Siaya", "Rating Curve": "Yes" }, "geometry": { "type": "Point", "coordinates": [ 34.14594, 0.38341 ] } },
{ "type": "Feature", "properties": { "Nat_ID": "1BA01", "Water Body Name": "Moiben", "Sub-Region Office": "Eldoret", "Rating Curve": "Yes" }, "geometry": { "type": "Point", "coordinates": [ 35.44288, 0.80312 ] } },
{ "type": "Feature", "properties": { "Nat_ID": "1BB01", "Water Body Name": "Nzoia", "Sub-Region Office": "Kitale", "Rating Curve": "Yes" }, "geometry": { "type": "Point", "coordinates": [ 35.13083, 0.91838 ] } },
{ "type": "Feature", "properties": { "Nat_ID": "1BB02", "Water Body Name": "Losura", "Sub-Region Office": "Kitale", "Rating Curve": "Yes" }, "geometry": { "type": "Point", "coordinates": [ 35.23952, 0.94966 ] } },
{ "type": "Feature", "properties": { "Nat_ID": "1BB03", "Water Body Name": "Chepkatit", "Sub-Region Office": "Kitale", "Rating Curve": "Yes" }, "geometry": { "type": "Point", "coordinates": [ 35.33056, 1.04028 ] } },
{ "type": "Feature", "properties": { "Nat_ID": "1BB04", "Water Body Name": "Kamaina", "Sub-Region Office": "Kitale", "Rating Curve": "Yes" }, "geometry": { "type": "Point", "coordinates": [ 35.34722, 1.04722 ] } },
{ "type": "Feature", "properties": { "Nat_ID": "1BC NEW", "Water Body Name": "Kapenguria", "Sub-Region Office": "Kitale", "Rating Curve": "Yes" }, "geometry": { "type": "Point", "coordinates": [ 35.125, 1.23056 ] } },
{ "type": "Feature", "properties": { "Nat_ID": "1BC01", "Water Body Name": "Noigamaget", "Sub-Region Office": "Kitale", "Rating Curve": "Yes" }, "geometry": { "type": "Point", "coordinates": [ 35.1325, 0.92557 ] } },
{ "type": "Feature", "properties": { "Nat_ID": "1BC02", "Water Body Name": "Kapenguria", "Sub-Region Office": "Kitale", "Rating Curve": "Yes" }, "geometry": { "type": "Point", "coordinates": [ 35.10972, 1.22139 ] } },
{ "type": "Feature", "properties": { "Nat_ID": "1BC03", "Water Body Name": "Kapterit", "Sub-Region Office": "Kitale", "Rating Curve": "No" }, "geometry": { "type": "Point", "coordinates": [ 35.19833, 1.03194 ] } },
{ "type": "Feature", "properties": { "Nat_ID": "1BD01", "Water Body Name": "Little Nzoia", "Sub-Region Office": "Eldoret", "Rating Curve": "Yes" }, "geometry": { "type": "Point", "coordinates": [ 35.12541, 0.81664 ] } },
{ "type": "Feature", "properties": { "Nat_ID": "1BD02", "Water Body Name": "Large Nzoia", "Sub-Region Office": "Eldoret", "Rating Curve": "Yes" }, "geometry": { "type": "Point", "coordinates": [ 35.06242, 0.76037 ] } },
{ "type": "Feature", "properties": { "Nat_ID": "1BE01", "Water Body Name": "Koitobos", "Sub-Region Office": "Kitale", "Rating Curve": "Yes" }, "geometry": { "type": "Point", "coordinates": [ 35.02778, 1.07444 ] } },
{ "type": "Feature", "properties": { "Nat_ID": "1BE02", "Water Body Name": "Kiptogot", "Sub-Region Office": "Kitale", "Rating Curve": "Yes" }, "geometry": { "type": "Point", "coordinates": [ 34.79167, 1.14722 ] } },
{ "type": "Feature", "properties": { "Nat_ID": "1BE03", "Water Body Name": "Mbere", "Sub-Region Office": "Kitale", "Rating Curve": "No" }, "geometry": { "type": "Point", "coordinates": [ 34.84028, 1.12083 ] } },
{ "type": "Feature", "properties": { "Nat_ID": "1BE04", "Water Body Name": "Khybe", "Sub-Region Office": "Kitale", "Rating Curve": "Yes" }, "geometry": { "type": "Point", "coordinates": [ 34.81944, 1.10972 ] } },
{ "type": "Feature", "properties": { "Nat_ID": "1BE05", "Water Body Name": "Koitobos", "Sub-Region Office": "Kitale", "Rating Curve": "Yes" }, "geometry": { "type": "Point", "coordinates": [ 34.83333, 1.07639 ] } },
{ "type": "Feature", "properties": { "Nat_ID": "1BE06", "Water Body Name": "Koitobos", "Sub-Region Office": "Kitale", "Rating Curve": "Yes" }, "geometry": { "type": "Point", "coordinates": [ 35.08981, 0.96268 ] } },
{ "type": "Feature", "properties": { "Nat_ID": "1BE07", "Water Body Name": "Koitobos", "Sub-Region Office": "Kitale", "Rating Curve": "No" }, "geometry": { "type": "Point", "coordinates": [ 35.00972, 1.08333 ] } },
{ "type": "Feature", "properties": { "Nat_ID": "1BE08", "Water Body Name": "Koitobos", "Sub-Region Office": "Kitale", "Rating Curve": "Yes" }, "geometry": { "type": "Point", "coordinates": [ 35.05278, 1.05972 ] } },
{ "type": "Feature", "properties": { "Nat_ID": "1BE09", "Water Body Name": "Mubere", "Sub-Region Office": "Kitale", "Rating Curve": "No" }, "geometry": { "type": "Point", "coordinates": [ 34.81444, 1.12806 ] } },
{ "type": "Feature", "properties": { "Nat_ID": "1BG01", "Water Body Name": "Chebusan", "Sub-Region Office": "Kitale", "Rating Curve": "Yes" }, "geometry": { "type": "Point", "coordinates": [ 34.8861, 0.8694 ] } },
{ "type": "Feature", "properties": { "Nat_ID": "1BG02", "Water Body Name": "Tongaren", "Sub-Region Office": "Kitale", "Rating Curve": "Yes" }, "geometry": { "type": "Point", "coordinates": [ 34.8917, 0.9083 ] } },
{ "type": "Feature", "properties": { "Nat_ID": "1BG03", "Water Body Name": "Kabeywan", "Sub-Region Office": "Kitale", "Rating Curve": "Yes" }, "geometry": { "type": "Point", "coordinates": [ 34.83927, 0.98057 ] } },
{ "type": "Feature", "properties": { "Nat_ID": "1BG04", "Water Body Name": "Kassowai", "Sub-Region Office": "Kitale", "Rating Curve": "Yes" }, "geometry": { "type": "Point", "coordinates": [ 34.85278, 1.16944 ] } },
{ "type": "Feature", "properties": { "Nat_ID": "1BG05", "Water Body Name": "Rongai", "Sub-Region Office": "Kitale", "Rating Curve": "Yes" }, "geometry": { "type": "Point", "coordinates": [ 34.8458, 1.0333 ] } },
{ "type": "Feature", "properties": { "Nat_ID": "1BG06", "Water Body Name": "Ewaso Rongai", "Sub-Region Office": "Kitale", "Rating Curve": "Yes" }, "geometry": { "type": "Point", "coordinates": [ 34.95, 0.88333 ] } },
{ "type": "Feature", "properties": { "Nat_ID": "1BG07", "Water Body Name": "Rongai", "Sub-Region Office": "Kitale", "Rating Curve": "Yes" }, "geometry": { "type": "Point", "coordinates": [ 34.92692, 0.77183 ] } },
{ "type": "Feature", "properties": { "Nat_ID": "1BH02", "Water Body Name": "Kimilili", "Sub-Region Office": "Kitale", "Rating Curve": "Yes" }, "geometry": { "type": "Point", "coordinates": [ 34.72222, 0.79444 ] } },
{ "type": "Feature", "properties": { "Nat_ID": "1BH03", "Water Body Name": "Kimilili Springs", "Sub-Region Office": "Kitale", "Rating Curve": "No" }, "geometry": { "type": "Point", "coordinates": [ 34.71944, 0.79167 ] } },
{ "type": "Feature", "properties": { "Nat_ID": "1BH04", "Water Body Name": "Kamukoywa", "Sub-Region Office": "Kitale", "Rating Curve": "Yes" }, "geometry": { "type": "Point", "coordinates": [ 34.80307, 0.7843 ] } },
{ "type": "Feature", "properties": { "Nat_ID": "1BH07", "Water Body Name": "Sosio", "Sub-Region Office": "Kitale", "Rating Curve": null }, "geometry": { "type": "Point", "coordinates": [ 34.76737, 0.78542 ] } },
{ "type": "Feature", "properties": { "Nat_ID": "1CA01", "Water Body Name": "Segoit", "Sub-Region Office": "Eldoret", "Rating Curve": "Yes" }, "geometry": { "type": "Point", "coordinates": [ 35.3833, 0.5083 ] } },
{ "type": "Feature", "properties": { "Nat_ID": "1CA02", "Water Body Name": "Sergoit", "Sub-Region Office": "Eldoret", "Rating Curve": "Yes" }, "geometry": { "type": "Point", "coordinates": [ 35.06541, 0.63139 ] } },
{ "type": "Feature", "properties": { "Nat_ID": "1CB01", "Water Body Name": "Sosiani", "Sub-Region Office": "Eldoret", "Rating Curve": "Yes" }, "geometry": { "type": "Point", "coordinates": [ 35.29444, 0.50139 ] } },
{ "type": "Feature", "properties": { "Nat_ID": "1CB02", "Water Body Name": "Kipsanandi", "Sub-Region Office": "Eldoret", "Rating Curve": "Yes" }, "geometry": { "type": "Point", "coordinates": [ 35.46427, 0.42626 ] } },
{ "type": "Feature", "properties": { "Nat_ID": "1CB03", "Water Body Name": "Ellegirini", "Sub-Region Office": "Eldoret", "Rating Curve": "Yes" }, "geometry": { "type": "Point", "coordinates": [ 35.475, 0.45139 ] } },
{ "type": "Feature", "properties": { "Nat_ID": "1CB04", "Water Body Name": "Sosiani", "Sub-Region Office": "Eldoret", "Rating Curve": "Yes" }, "geometry": { "type": "Point", "coordinates": [ 35.17639, 0.55 ] } },
{ "type": "Feature", "properties": { "Nat_ID": "1CB05", "Water Body Name": "Sosiani", "Sub-Region Office": "Eldoret", "Rating Curve": "Yes" }, "geometry": { "type": "Point", "coordinates": [ 35.0567, 0.62433 ] } },
{ "type": "Feature", "properties": { "Nat_ID": "1CB06", "Water Body Name": "Ellegirini", "Sub-Region Office": "Eldoret", "Rating Curve": "Yes" }, "geometry": { "type": "Point", "coordinates": [ 35.37361, 0.46667 ] } },
{ "type": "Feature", "properties": { "Nat_ID": "1CB07", "Water Body Name": "Endoroto", "Sub-Region Office": "Eldoret", "Rating Curve": "Yes" }, "geometry": { "type": "Point", "coordinates": [ 35.35694, 0.45694 ] } },
{ "type": "Feature", "properties": { "Nat_ID": "1CB08", "Water Body Name": "Endoroto", "Sub-Region Office": "Eldoret", "Rating Curve": "Yes" }, "geometry": { "type": "Point", "coordinates": [ 35.36669, 0.44067 ] } },
{ "type": "Feature", "properties": { "Nat_ID": "1CB09", "Water Body Name": "Ellegirini", "Sub-Region Office": "Eldoret", "Rating Curve": "Yes" }, "geometry": { "type": "Point", "coordinates": [ 35.38857, 0.45424 ] } },
{ "type": "Feature", "properties": { "Nat_ID": "1CB10", "Water Body Name": "Kipwen", "Sub-Region Office": "Eldoret", "Rating Curve": "Yes" }, "geometry": { "type": "Point", "coordinates": [ 35.54944, 0.39 ] } },
{ "type": "Feature", "properties": { "Nat_ID": "1CC01", "Water Body Name": "Onyokie", "Sub-Region Office": "Eldoret", "Rating Curve": "Yes" }, "geometry": { "type": "Point", "coordinates": [ 35.19959, 0.39428 ] } },
{ "type": "Feature", "properties": { "Nat_ID": "1CC02", "Water Body Name": "Mutwot", "Sub-Region Office": "Kitale", "Rating Curve": "No" }, "geometry": { "type": "Point", "coordinates": [ 35.13194, 0.39583 ] } },
{ "type": "Feature", "properties": { "Nat_ID": "1CC03", "Water Body Name": "Onyokie Olar", "Sub-Region Office": "Eldoret", "Rating Curve": "No" }, "geometry": { "type": "Point", "coordinates": [ 35.19972, 0.39861 ] } },
{ "type": "Feature", "properties": { "Nat_ID": "1CD01", "Water Body Name": "Kipkarren", "Sub-Region Office": "Eldoret", "Rating Curve": "Yes" }, "geometry": { "type": "Point", "coordinates": [ 35.02837, 0.49701 ] } },
{ "type": "Feature", "properties": { "Nat_ID": "1CD02", "Water Body Name": "Kipkarren", "Sub-Region Office": "Eldoret", "Rating Curve": "No" }, "geometry": { "type": "Point", "coordinates": [ 35.02917, 0.49861 ] } },
{ "type": "Feature", "properties": { "Nat_ID": "1CE01", "Water Body Name": "Kipkarren", "Sub-Region Office": "Eldoret", "Rating Curve": "Yes" }, "geometry": { "type": "Point", "coordinates": [ 34.96475, 0.60684 ] } },
{ "type": "Feature", "properties": { "Nat_ID": "1DA New", "Water Body Name": "Murgusi", "Sub-Region Office": "Eldoret", "Rating Curve": null }, "geometry": { "type": "Point", "coordinates": [ 34.9754, 0.6195 ] } },
{ "type": "Feature", "properties": { "Nat_ID": "1DA01", "Water Body Name": "Nzoia", "Sub-Region Office": "Kitale", "Rating Curve": "No" }, "geometry": { "type": "Point", "coordinates": [ 34.80139, 0.5875 ] } },
{ "type": "Feature", "properties": { "Nat_ID": "1DA02", "Water Body Name": "Nzoia", "Sub-Region Office": "Kitale", "Rating Curve": "Yes" }, "geometry": { "type": "Point", "coordinates": [ 34.80687, 0.586 ] } },
{ "type": "Feature", "properties": { "Nat_ID": "1DA03", "Water Body Name": "Chevaywa", "Sub-Region Office": "Eldoret", "Rating Curve": "No" }, "geometry": { "type": "Point", "coordinates": [ 34.80735, 0.5485 ] } },
{ "type": "Feature", "properties": { "Nat_ID": "1DA04", "Water Body Name": "Luandeti", "Sub-Region Office": "Eldoret", "Rating Curve": "No" }, "geometry": { "type": "Point", "coordinates": [ 34.82982, 0.591 ] } },
{ "type": "Feature", "properties": { "Nat_ID": "1DB01", "Water Body Name": "Kuywa", "Sub-Region Office": "Kitale", "Rating Curve": "Yes" }, "geometry": { "type": "Point", "coordinates": [ 34.69993, 0.62027 ] } },
{ "type": "Feature", "properties": { "Nat_ID": "1DB02", "Water Body Name": "Bokoli", "Sub-Region Office": "Kitale", "Rating Curve": "Yes" }, "geometry": { "type": "Point", "coordinates": [ 34.68179, 0.62008 ] } },
{ "type": "Feature", "properties": { "Nat_ID": "1DB03", "Water Body Name": "Kuywa", "Sub-Region Office": "Kitale", "Rating Curve": "Yes" }, "geometry": { "type": "Point", "coordinates": [ 34.59463, 0.80819 ] } },
{ "type": "Feature", "properties": { "Nat_ID": "1DB04", "Water Body Name": "Kibisi (Kimalewa)", "Sub-Region Office": "Kitale", "Rating Curve": "No" }, "geometry": { "type": "Point", "coordinates": [ 34.64684, 0.79125 ] } },
{ "type": "Feature", "properties": { "Nat_ID": "1DC01", "Water Body Name": "Chwele", "Sub-Region Office": "Kitale", "Rating Curve": "Yes" }, "geometry": { "type": "Point", "coordinates": [ 34.63932, 0.60559 ] } },
{ "type": "Feature", "properties": { "Nat_ID": "1DD01", "Water Body Name": "Nzoia", "Sub-Region Office": "Siaya", "Rating Curve": "Yes" }, "geometry": { "type": "Point", "coordinates": [ 34.48688, 0.3691 ] } },
{ "type": "Feature", "properties": { "Nat_ID": "1DD02", "Water Body Name": "Khalaba", "Sub-Region Office": "Kitale", "Rating Curve": "Yes" }, "geometry": { "type": "Point", "coordinates": [ 34.56387, 0.53971 ] } },
{ "type": "Feature", "properties": { "Nat_ID": "1DD03", "Water Body Name": "Lairi", "Sub-Region Office": "Siaya", "Rating Curve": "Yes" }, "geometry": { "type": "Point", "coordinates": [ 34.41944, 0.36111 ] } },
{ "type": "Feature", "properties": { "Nat_ID": "1EA01", "Water Body Name": "Ikhamala", "Sub-Region Office": "Siaya", "Rating Curve": null }, "geometry": { "type": "Point", "coordinates": [ 34.7884, 0.284 ] } },
{ "type": "Feature", "properties": { "Nat_ID": "1EB01", "Water Body Name": "Isiukhu", "Sub-Region Office": "Siaya", "Rating Curve": "No" }, "geometry": { "type": "Point", "coordinates": [ 34.77639, 0.27778 ] } },
{ "type": "Feature", "properties": { "Nat_ID": "1EB02", "Water Body Name": "Isiukhu", "Sub-Region Office": "Siaya", "Rating Curve": "Yes" }, "geometry": { "type": "Point", "coordinates": [ 34.75046, 0.2546 ] } },
{ "type": "Feature", "properties": { "Nat_ID": "1EB03", "Water Body Name": "Isasala", "Sub-Region Office": "Siaya", "Rating Curve": "No" }, "geometry": { "type": "Point", "coordinates": [ 34.72333, 0.33824 ] } },
{ "type": "Feature", "properties": { "Nat_ID": "1ED01", "Water Body Name": "Lusumu", "Sub-Region Office": "Siaya", "Rating Curve": "Yes" }, "geometry": { "type": "Point", "coordinates": [ 34.47926, 0.30621 ] } },
{ "type": "Feature", "properties": { "Nat_ID": "1EE01", "Water Body Name": "Nzoia", "Sub-Region Office": "Siaya", "Rating Curve": "Yes" }, "geometry": { "type": "Point", "coordinates": [ 34.2264, 0.17778 ] } },
{ "type": "Feature", "properties": { "Nat_ID": "1EE02", "Water Body Name": "Safu", "Sub-Region Office": "Siaya", "Rating Curve": "Yes" }, "geometry": { "type": "Point", "coordinates": [ 34.23772, 0.22225 ] } },
{ "type": "Feature", "properties": { "Nat_ID": "1EF01", "Water Body Name": "Nzoia (At Rwambwa Ferry)", "Sub-Region Office": "Siaya", "Rating Curve": "Yes" }, "geometry": { "type": "Point", "coordinates": [ 34.09087, 0.12135 ] } },
{ "type": "Feature", "properties": { "Nat_ID": "1EF02", "Water Body Name": "Gaula", "Sub-Region Office": "Siaya", "Rating Curve": "Yes" }, "geometry": { "type": "Point", "coordinates": [ 34.17083, 0.18056 ] } },
{ "type": "Feature", "properties": { "Nat_ID": "1EG01", "Water Body Name": "Uludhi", "Sub-Region Office": "Siaya", "Rating Curve": "Yes" }, "geometry": { "type": "Point", "coordinates": [ 34.32613, 0.14583 ] } },
{ "type": "Feature", "properties": { "Nat_ID": "1EG02", "Water Body Name": "Wuroya", "Sub-Region Office": "Siaya", "Rating Curve": "Yes" }, "geometry": { "type": "Point", "coordinates": [ 34.24336, 0.14897 ] } },
{ "type": "Feature", "properties": { "Nat_ID": "1EG03", "Water Body Name": "Wuroya", "Sub-Region Office": "Siaya", "Rating Curve": "Yes" }, "geometry": { "type": "Point", "coordinates": [ 34.31944, 0.1625 ] } },
{ "type": "Feature", "properties": { "Nat_ID": "1EG04", "Water Body Name": "Firatsi", "Sub-Region Office": "Siaya", "Rating Curve": "0" }, "geometry": { "type": "Point", "coordinates": [ 34.4915, 0.1998 ] } },
{ "type": "Feature", "properties": { "Nat_ID": "1FC01", "Water Body Name": "Kimondi", "Sub-Region Office": "Eldoret", "Rating Curve": "Yes" }, "geometry": { "type": "Point", "coordinates": [ 35.04992, 0.19402 ] } },
{ "type": "Feature", "properties": { "Nat_ID": "1FD01", "Water Body Name": "Kibabet", "Sub-Region Office": "Eldoret", "Rating Curve": "Yes" }, "geometry": { "type": "Point", "coordinates": [ 35.20417, 0.13056 ] } },
{ "type": "Feature", "properties": { "Nat_ID": "1FD02", "Water Body Name": "Mokong", "Sub-Region Office": "Eldoret", "Rating Curve": "Yes" }, "geometry": { "type": "Point", "coordinates": [ 35.12528, 0.13559 ] } },
{ "type": "Feature", "properties": { "Nat_ID": "1FE01", "Water Body Name": "Yala", "Sub-Region Office": "Siaya", "Rating Curve": "Yes" }, "geometry": { "type": "Point", "coordinates": [ 34.575, 0.13333 ] } },
{ "type": "Feature", "properties": { "Nat_ID": "1FE02", "Water Body Name": "Yala", "Sub-Region Office": "Eldoret", "Rating Curve": "Yes" }, "geometry": { "type": "Point", "coordinates": [ 34.93727, 0.18121 ] } },
{ "type": "Feature", "properties": { "Nat_ID": "1FE03", "Water Body Name": "Garagoli", "Sub-Region Office": "Eldoret", "Rating Curve": "Yes" }, "geometry": { "type": "Point", "coordinates": [ 34.85424, 0.11564 ] } },
{ "type": "Feature", "properties": { "Nat_ID": "1FF01", "Water Body Name": "Edzawa", "Sub-Region Office": "Eldoret", "Rating Curve": "Yes" }, "geometry": { "type": "Point", "coordinates": [ 34.72402, 0.10431 ] } },
{ "type": "Feature", "properties": { "Nat_ID": "1FF02", "Water Body Name": "Zaaba", "Sub-Region Office": "Eldoret", "Rating Curve": "Yes" }, "geometry": { "type": "Point", "coordinates": [ 34.62799, 0.05755 ] } },
{ "type": "Feature", "properties": { "Nat_ID": "1FF03", "Water Body Name": "Edzawa", "Sub-Region Office": "Eldoret", "Rating Curve": "Yes" }, "geometry": { "type": "Point", "coordinates": [ 34.56097, 0.09181 ] } },
{ "type": "Feature", "properties": { "Nat_ID": "1FF03A", "Water Body Name": "Zaaba", "Sub-Region Office": "Eldoret", "Rating Curve": "Yes" }, "geometry": { "type": "Point", "coordinates": [ 34.6278, 0.0583 ] } },
{ "type": "Feature", "properties": { "Nat_ID": "1FG01", "Water Body Name": "Yala", "Sub-Region Office": "Siaya", "Rating Curve": "Yes" }, "geometry": { "type": "Point", "coordinates": [ 34.5424, 0.08468 ] } },
{ "type": "Feature", "properties": { "Nat_ID": "1FG02", "Water Body Name": "Yala", "Sub-Region Office": "Siaya", "Rating Curve": "Yes" }, "geometry": { "type": "Point", "coordinates": [ 34.26471, -0.04665 ] } },
{ "type": "Feature", "properties": { "Nat_ID": "1FG03", "Water Body Name": "Yala Kadenge", "Sub-Region Office": "Siaya", "Rating Curve": "Yes" }, "geometry": { "type": "Point", "coordinates": [ 34.14008, -0.00205 ] } },
{ "type": "Feature", "properties": { "Nat_ID": "1GB01", "Water Body Name": "Ainopsiwa", "Sub-Region Office": "Kisumu", "Rating Curve": "Yes" }, "geometry": { "type": "Point", "coordinates": [ 35.1875, 0.08056 ] } },
{ "type": "Feature", "properties": { "Nat_ID": "1GB02", "Water Body Name": "Ainopsiwa", "Sub-Region Office": "Kisumu", "Rating Curve": "No" }, "geometry": { "type": "Point", "coordinates": [ 35.1875, 0.08333 ] } },
{ "type": "Feature", "properties": { "Nat_ID": "1GB03", "Water Body Name": "Ainamatua", "Sub-Region Office": "Kisumu", "Rating Curve": "Yes" }, "geometry": { "type": "Point", "coordinates": [ 35.05611, -0.07532 ] } },
{ "type": "Feature", "properties": { "Nat_ID": "1GB04", "Water Body Name": "Ainopsiwa", "Sub-Region Office": "Kisumu", "Rating Curve": "No" }, "geometry": { "type": "Point", "coordinates": [ 35.19667, 0.09 ] } },
{ "type": "Feature", "properties": { "Nat_ID": "1GB05", "Water Body Name": "Ainamatua", "Sub-Region Office": "Kisumu", "Rating Curve": "Yes" }, "geometry": { "type": "Point", "coordinates": [ 35.17906, -0.02956 ] } },
{ "type": "Feature", "properties": { "Nat_ID": "1GB06", "Water Body Name": "Mbogo", "Sub-Region Office": "Kisumu", "Rating Curve": "Yes" }, "geometry": { "type": "Point", "coordinates": [ 35.14333, -0.05833 ] } },
{ "type": "Feature", "properties": { "Nat_ID": "1GB06A", "Water Body Name": "Mbogo", "Sub-Region Office": "Kisumu", "Rating Curve": "No" }, "geometry": { "type": "Point", "coordinates": [ 35.14769, -0.0608 ] } },
{ "type": "Feature", "properties": { "Nat_ID": "1GB07", "Water Body Name": "Kapchure", "Sub-Region Office": "Kisumu", "Rating Curve": "Yes" }, "geometry": { "type": "Point", "coordinates": [ 35.1, -0.00833 ] } },
{ "type": "Feature", "properties": { "Nat_ID": "1GB08", "Water Body Name": "Ainamotua", "Sub-Region Office": "Kisumu", "Rating Curve": "Yes" }, "geometry": { "type": "Point", "coordinates": [ 35.05278, -0.09306 ] } },
{ "type": "Feature", "properties": { "Nat_ID": "1GB09", "Water Body Name": "Ainamotua", "Sub-Region Office": "Kisumu", "Rating Curve": "Yes" }, "geometry": { "type": "Point", "coordinates": [ 35.07639, -0.06528 ] } },
{ "type": "Feature", "properties": { "Nat_ID": "1GB10", "Water Body Name": "Kapchure", "Sub-Region Office": "Kisumu", "Rating Curve": "Yes" }, "geometry": { "type": "Point", "coordinates": [ 35.07222, -0.05833 ] } },
{ "type": "Feature", "properties": { "Nat_ID": "1GB11", "Water Body Name": "Ainopsiwa", "Sub-Region Office": "Kisumu", "Rating Curve": "No" }, "geometry": { "type": "Point", "coordinates": [ 35.17639, -0.025 ] } },
{ "type": "Feature", "properties": { "Nat_ID": "1GC01", "Water Body Name": "Masaita Dam", "Sub-Region Office": "Kisumu", "Rating Curve": "No" }, "geometry": { "type": "Point", "coordinates": [ 35.60278, -0.13333 ] } },
{ "type": "Feature", "properties": { "Nat_ID": "1GC03", "Water Body Name": "Nyando", "Sub-Region Office": "Kisumu", "Rating Curve": "Yes" }, "geometry": { "type": "Point", "coordinates": [ 35.4635, -0.20505 ] } },
{ "type": "Feature", "properties": { "Nat_ID": "1GC04", "Water Body Name": "Tugenon", "Sub-Region Office": "Kisumu", "Rating Curve": "Yes" }, "geometry": { "type": "Point", "coordinates": [ 35.46434, -0.20534 ] } },
{ "type": "Feature", "properties": { "Nat_ID": "1GC05", "Water Body Name": "Masaita", "Sub-Region Office": "Kisumu", "Rating Curve": "Yes" }, "geometry": { "type": "Point", "coordinates": [ 35.53472, -0.19444 ] } },
{ "type": "Feature", "properties": { "Nat_ID": "1GC06", "Water Body Name": "Nyando", "Sub-Region Office": "Kisumu", "Rating Curve": "Yes" }, "geometry": { "type": "Point", "coordinates": [ 35.46667, -0.2 ] } },
{ "type": "Feature", "properties": { "Nat_ID": "1GC07", "Water Body Name": "Kipchorian", "Sub-Region Office": "Kisumu", "Rating Curve": "Yes" }, "geometry": { "type": "Point", "coordinates": [ 35.7542, -0.20517 ] } },
{ "type": "Feature", "properties": { "Nat_ID": "1GD01", "Water Body Name": "Nyando (Ahero Bridge)", "Sub-Region Office": "Kisumu", "Rating Curve": "Yes" }, "geometry": { "type": "Point", "coordinates": [ 34.92089, -0.17226 ] } },
{ "type": "Feature", "properties": { "Nat_ID": "1GD01A", "Water Body Name": "Nyando", "Sub-Region Office": "Kisumu", "Rating Curve": "No" }, "geometry": { "type": "Point", "coordinates": [ 34.91944, -0.16389 ] } },
{ "type": "Feature", "properties": { "Nat_ID": "1GD02", "Water Body Name": "Nyando", "Sub-Region Office": "Kisumu", "Rating Curve": "Yes" }, "geometry": { "type": "Point", "coordinates": [ 35.15694, -0.16944 ] } },
{ "type": "Feature", "properties": { "Nat_ID": "1GD03", "Water Body Name": "Nyando", "Sub-Region Office": "Kisumu", "Rating Curve": "Yes" }, "geometry": { "type": "Point", "coordinates": [ 35.00115, -0.12538 ] } },
{ "type": "Feature", "properties": { "Nat_ID": "1GD04", "Water Body Name": "Nyando", "Sub-Region Office": "Kisumu", "Rating Curve": "Yes" }, "geometry": { "type": "Point", "coordinates": [ 35.04444, -0.10139 ] } },
{ "type": "Feature", "properties": { "Nat_ID": "1GD04A", "Water Body Name": "Nyando", "Sub-Region Office": "Kisumu", "Rating Curve": "No" }, "geometry": { "type": "Point", "coordinates": [ 35.04444, -0.10139 ] } },
{ "type": "Feature", "properties": { "Nat_ID": "1GD04B", "Water Body Name": "Nyando", "Sub-Region Office": "Kisumu", "Rating Curve": "No" }, "geometry": { "type": "Point", "coordinates": [ 35.04444, -0.10139 ] } },
{ "type": "Feature", "properties": { "Nat_ID": "1GD05", "Water Body Name": "Nyando", "Sub-Region Office": "Kisumu", "Rating Curve": "Yes" }, "geometry": { "type": "Point", "coordinates": [ 35.04722, -0.10139 ] } },
{ "type": "Feature", "properties": { "Nat_ID": "1GD06", "Water Body Name": "Nyando", "Sub-Region Office": "Kisumu", "Rating Curve": "No" }, "geometry": { "type": "Point", "coordinates": [ 35.131, -0.15 ] } },
{ "type": "Feature", "properties": { "Nat_ID": "1GD07", "Water Body Name": "Nyando", "Sub-Region Office": "Kisumu", "Rating Curve": "Yes" }, "geometry": { "type": "Point", "coordinates": [ 35.16389, -0.16389 ] } },
{ "type": "Feature", "properties": { "Nat_ID": "1GD08", "Water Body Name": "Nyando", "Sub-Region Office": "Kisumu", "Rating Curve": "No" }, "geometry": { "type": "Point", "coordinates": [ 34.97361, -0.14167 ] } },
{ "type": "Feature", "properties": { "Nat_ID": "1GE01", "Water Body Name": "Cherongit", "Sub-Region Office": "Kisumu", "Rating Curve": "No" }, "geometry": { "type": "Point", "coordinates": [ 35.01944, -0.28194 ] } },
{ "type": "Feature", "properties": { "Nat_ID": "1GE01A", "Water Body Name": "Cherongit", "Sub-Region Office": "Kisumu", "Rating Curve": "No" }, "geometry": { "type": "Point", "coordinates": [ 35.01944, -0.28194 ] } },
{ "type": "Feature", "properties": { "Nat_ID": "1GG01", "Water Body Name": "Namuting", "Sub-Region Office": "Kisumu", "Rating Curve": "Yes" }, "geometry": { "type": "Point", "coordinates": [ 35.34752, -0.20427 ] } },
{ "type": "Feature", "properties": { "Nat_ID": "1GG02", "Water Body Name": "Namuting", "Sub-Region Office": "Kisumu", "Rating Curve": "Yes" }, "geometry": { "type": "Point", "coordinates": [ 35.25694, -0.19861 ] } },
{ "type": "Feature", "properties": { "Nat_ID": "1HA01", "Water Body Name": "Great Oruba", "Sub-Region Office": "Kisumu", "Rating Curve": "Yes" }, "geometry": { "type": "Point", "coordinates": [ 35.0, -0.01944 ] } },
{ "type": "Feature", "properties": { "Nat_ID": "1HA02", "Water Body Name": "Little Oruba", "Sub-Region Office": "Kisumu", "Rating Curve": "Yes" }, "geometry": { "type": "Point", "coordinates": [ 34.97083, -0.02778 ] } },
{ "type": "Feature", "properties": { "Nat_ID": "1HA03", "Water Body Name": "Ngaita", "Sub-Region Office": "Kisumu", "Rating Curve": "No" }, "geometry": { "type": "Point", "coordinates": [ 34.88611, -0.03333 ] } },
{ "type": "Feature", "properties": { "Nat_ID": "1HA04", "Water Body Name": "Kibos", "Sub-Region Office": "Kisumu", "Rating Curve": "Yes" }, "geometry": { "type": "Point", "coordinates": [ 34.80417, -0.00833 ] } },
{ "type": "Feature", "properties": { "Nat_ID": "1HA05", "Water Body Name": "Tributary Of Kibos", "Sub-Region Office": "Kisumu", "Rating Curve": "No" }, "geometry": { "type": "Point", "coordinates": [ 34.80139, -0.00833 ] } },
{ "type": "Feature", "properties": { "Nat_ID": "1HA06", "Water Body Name": "Awach", "Sub-Region Office": "Kisumu", "Rating Curve": "No" }, "geometry": { "type": "Point", "coordinates": [ 34.78333, -0.025 ] } },
{ "type": "Feature", "properties": { "Nat_ID": "1HA07", "Water Body Name": "Kibos", "Sub-Region Office": "Kisumu", "Rating Curve": "No" }, "geometry": { "type": "Point", "coordinates": [ 34.79167, -0.08333 ] } },
{ "type": "Feature", "properties": { "Nat_ID": "1HA08", "Water Body Name": "Kibos", "Sub-Region Office": "Kisumu", "Rating Curve": "No" }, "geometry": { "type": "Point", "coordinates": [ 34.7875, -0.11667 ] } },
{ "type": "Feature", "properties": { "Nat_ID": "1HA09", "Water Body Name": "Nyamasaria", "Sub-Region Office": "Kisumu", "Rating Curve": "No" }, "geometry": { "type": "Point", "coordinates": [ 34.79722, -0.13611 ] } },
{ "type": "Feature", "properties": { "Nat_ID": "1HA10", "Water Body Name": "Luando", "Sub-Region Office": "Kisumu", "Rating Curve": "No" }, "geometry": { "type": "Point", "coordinates": [ 34.80833, -0.14583 ] } },
{ "type": "Feature", "properties": { "Nat_ID": "1HA11", "Water Body Name": "Great Oruba", "Sub-Region Office": "Kisumu", "Rating Curve": "No" }, "geometry": { "type": "Point", "coordinates": [ 35.00061, -0.07359 ] } },
{ "type": "Feature", "properties": { "Nat_ID": "1HA12", "Water Body Name": "Kibos", "Sub-Region Office": "Kisumu", "Rating Curve": "Yes" }, "geometry": { "type": "Point", "coordinates": [ 34.81389, -0.06667 ] } },
{ "type": "Feature", "properties": { "Nat_ID": "1HA13", "Water Body Name": "Gwambei", "Sub-Region Office": "Kisumu", "Rating Curve": "No" }, "geometry": { "type": "Point", "coordinates": [ 34.72917, 0.025 ] } },
{ "type": "Feature", "properties": { "Nat_ID": "1HA14", "Water Body Name": "Awach", "Sub-Region Office": "Kisumu", "Rating Curve": "Yes" }, "geometry": { "type": "Point", "coordinates": [ 34.80417, -0.04722 ] } },
{ "type": "Feature", "properties": { "Nat_ID": "1HA15", "Water Body Name": "Kibos", "Sub-Region Office": "Kisumu", "Rating Curve": "Yes" }, "geometry": { "type": "Point", "coordinates": [ 34.81456, -0.0685 ] } },
{ "type": "Feature", "properties": { "Nat_ID": "1HA16", "Water Body Name": "Kibos", "Sub-Region Office": "Kisumu", "Rating Curve": "No" }, "geometry": { "type": "Point", "coordinates": [ 34.81389, -0.075 ] } },
{ "type": "Feature", "properties": { "Nat_ID": "1HB01", "Water Body Name": "Maseno", "Sub-Region Office": "Kisumu", "Rating Curve": "No" }, "geometry": { "type": "Point", "coordinates": [ 34.6, 0.01389 ] } },
{ "type": "Feature", "properties": { "Nat_ID": "1HB02", "Water Body Name": "Spring Near Maseno", "Sub-Region Office": "Kisumu", "Rating Curve": "No" }, "geometry": { "type": "Point", "coordinates": [ 34.57222, 0.01389 ] } },
{ "type": "Feature", "properties": { "Nat_ID": "1HB03", "Water Body Name": "Maseno", "Sub-Region Office": "Kisumu", "Rating Curve": "No" }, "geometry": { "type": "Point", "coordinates": [ 34.60833, 0.0 ] } },
{ "type": "Feature", "properties": { "Nat_ID": "1HB04", "Water Body Name": "Lake Victoria At Kisumu", "Sub-Region Office": "Kisumu", "Rating Curve": "No" }, "geometry": { "type": "Point", "coordinates": [ 34.74028, -0.0875 ] } },
{ "type": "Feature", "properties": { "Nat_ID": "1HB05", "Water Body Name": "Awach Seme", "Sub-Region Office": "Kisumu", "Rating Curve": "Yes" }, "geometry": { "type": "Point", "coordinates": [ 34.47486, -0.09488 ] } },
{ "type": "Feature", "properties": { "Nat_ID": "1HD NEW", "Water Body Name": "Rigwero", "Sub-Region Office": "Kisii", "Rating Curve": null }, "geometry": { "type": "Point", "coordinates": [ 34.87152, -0.61988 ] } },
{ "type": "Feature", "properties": { "Nat_ID": "1HD01", "Water Body Name": "Awach Tende", "Sub-Region Office": "Kisii", "Rating Curve": "Yes" }, "geometry": { "type": "Point", "coordinates": [ 34.66944, -0.40278 ] } },
{ "type": "Feature", "properties": { "Nat_ID": "1HD02", "Water Body Name": "Awach", "Sub-Region Office": "Kisii", "Rating Curve": "Yes" }, "geometry": { "type": "Point", "coordinates": [ 34.88333, -0.45 ] } },
{ "type": "Feature", "properties": { "Nat_ID": "1HD03", "Water Body Name": "Awach Kabondo", "Sub-Region Office": "Kisii", "Rating Curve": "Yes" }, "geometry": { "type": "Point", "coordinates": [ 34.88435, -0.45179 ] } },
{ "type": "Feature", "properties": { "Nat_ID": "1HD04", "Water Body Name": "Awach Kabuon", "Sub-Region Office": "Kisii", "Rating Curve": "Yes" }, "geometry": { "type": "Point", "coordinates": [ 34.65367, -0.40278 ] } },
{ "type": "Feature", "properties": { "Nat_ID": "1HD05", "Water Body Name": "Awach Kasipul", "Sub-Region Office": "Kisii", "Rating Curve": "Yes" }, "geometry": { "type": "Point", "coordinates": [ 34.84028, -0.50139 ] } },
{ "type": "Feature", "properties": { "Nat_ID": "1HD06", "Water Body Name": "Eaka Kioge", "Sub-Region Office": "Kisii", "Rating Curve": "No" }, "geometry": { "type": "Point", "coordinates": [ 34.95, -0.50833 ] } },
{ "type": "Feature", "properties": { "Nat_ID": "1HD09", "Water Body Name": "Awach Kibuon", "Sub-Region Office": "NSNSRO", "Rating Curve": "No" }, "geometry": { "type": "Point", "coordinates": [ 35.58472, -0.40417 ] } },
{ "type": "Feature", "properties": { "Nat_ID": "1HE01", "Water Body Name": "Awach Tende", "Sub-Region Office": "Kisii", "Rating Curve": "Yes" }, "geometry": { "type": "Point", "coordinates": [ 34.54961, -0.46843 ] } },
{ "type": "Feature", "properties": { "Nat_ID": "1HE02", "Water Body Name": "Mogusii", "Sub-Region Office": "Kisii", "Rating Curve": "No" }, "geometry": { "type": "Point", "coordinates": [ 34.75629, -0.61916 ] } },
{ "type": "Feature", "properties": { "Nat_ID": "1HE03", "Water Body Name": "Isanda", "Sub-Region Office": "Kisii", "Rating Curve": "No" }, "geometry": { "type": "Point", "coordinates": [ 34.73667, -0.57444 ] } },
{ "type": "Feature", "properties": { "Nat_ID": "1HF", "Water Body Name": "Gembe Hills", "Sub-Region Office": "Kisii", "Rating Curve": "No" }, "geometry": { "type": "Point", "coordinates": [ 34.25972, -0.4925 ] } },
{ "type": "Feature", "properties": { "Nat_ID": "1HG", "Water Body Name": "Lake Victoria At Rusinga", "Sub-Region Office": "0", "Rating Curve": "No" }, "geometry": { "type": "Point", "coordinates": [ 34.14583, -0.43306 ] } },
{ "type": "Feature", "properties": { "Nat_ID": "1JA01", "Water Body Name": "Itare", "Sub-Region Office": "Kericho", "Rating Curve": "Yes" }, "geometry": { "type": "Point", "coordinates": [ 35.28889, -0.60278 ] } },
{ "type": "Feature", "properties": { "Nat_ID": "1JA02", "Water Body Name": "Kiptiget", "Sub-Region Office": "Kericho", "Rating Curve": "Yes" }, "geometry": { "type": "Point", "coordinates": [ 35.25844, -0.5548 ] } },
{ "type": "Feature", "properties": { "Nat_ID": "1JA03", "Water Body Name": "Songon", "Sub-Region Office": "Kericho", "Rating Curve": "No" }, "geometry": { "type": "Point", "coordinates": [ 35.57222, -0.40556 ] } },
{ "type": "Feature", "properties": { "Nat_ID": "1JA04", "Water Body Name": "Lower Songon", "Sub-Region Office": "Kericho", "Rating Curve": "No" }, "geometry": { "type": "Point", "coordinates": [ 35.58472, -0.40417 ] } },
{ "type": "Feature", "properties": { "Nat_ID": "1JA05", "Water Body Name": "Ndoinet", "Sub-Region Office": "Kericho", "Rating Curve": "Yes" }, "geometry": { "type": "Point", "coordinates": [ 35.58333, -0.41389 ] } },
{ "type": "Feature", "properties": { "Nat_ID": "1JA06", "Water Body Name": "Songon", "Sub-Region Office": "Kericho", "Rating Curve": "Yes" }, "geometry": { "type": "Point", "coordinates": [ 35.57361, -0.40556 ] } },
{ "type": "Feature", "properties": { "Nat_ID": "1JA07", "Water Body Name": "Songon", "Sub-Region Office": "Kericho", "Rating Curve": "Yes" }, "geometry": { "type": "Point", "coordinates": [ 35.57361, -0.40556 ] } },
{ "type": "Feature", "properties": { "Nat_ID": "1JB01", "Water Body Name": "Itare Chemosiet", "Sub-Region Office": "Kericho", "Rating Curve": "No" }, "geometry": { "type": "Point", "coordinates": [ 35.17361, -0.47222 ] } },
{ "type": "Feature", "properties": { "Nat_ID": "1JB02", "Water Body Name": "Maramara", "Sub-Region Office": "Kericho", "Rating Curve": "Yes" }, "geometry": { "type": "Point", "coordinates": [ 38.21667, -0.47917 ] } },
{ "type": "Feature", "properties": { "Nat_ID": "1JB03", "Water Body Name": "Chemosiet", "Sub-Region Office": "Kericho", "Rating Curve": "Yes" }, "geometry": { "type": "Point", "coordinates": [ 35.18194, -0.48056 ] } },
{ "type": "Feature", "properties": { "Nat_ID": "1JB04", "Water Body Name": "Maramara", "Sub-Region Office": "Kericho", "Rating Curve": "No" }, "geometry": { "type": "Point", "coordinates": [ 35.27639, -0.49444 ] } },
{ "type": "Feature", "properties": { "Nat_ID": "1JB05", "Water Body Name": "New Itare", "Sub-Region Office": "Kericho", "Rating Curve": "No" }, "geometry": { "type": "Point", "coordinates": [ 35.18131, -0.48811 ] } },
{ "type": "Feature", "properties": { "Nat_ID": "1JC01", "Water Body Name": "Chemongodi Spring", "Sub-Region Office": "Kericho", "Rating Curve": "No" }, "geometry": { "type": "Point", "coordinates": [ 35.29306, -0.37917 ] } },
{ "type": "Feature", "properties": { "Nat_ID": "1JC02", "Water Body Name": "Janji", "Sub-Region Office": "Kericho", "Rating Curve": "Yes" }, "geometry": { "type": "Point", "coordinates": [ 35.17917, -0.4625 ] } },
{ "type": "Feature", "properties": { "Nat_ID": "1JC03", "Water Body Name": "Kimugung", "Sub-Region Office": "Kericho", "Rating Curve": "Yes" }, "geometry": { "type": "Point", "coordinates": [ 35.29167, -0.36667 ] } },
{ "type": "Feature", "properties": { "Nat_ID": "1JC04", "Water Body Name": "Saosa", "Sub-Region Office": "Kericho", "Rating Curve": "Yes" }, "geometry": { "type": "Point", "coordinates": [ 35.29583, -0.42361 ] } },
{ "type": "Feature", "properties": { "Nat_ID": "1JC05", "Water Body Name": "Kimugung", "Sub-Region Office": "Kericho", "Rating Curve": "Yes" }, "geometry": { "type": "Point", "coordinates": [ 35.20833, -0.46667 ] } },
{ "type": "Feature", "properties": { "Nat_ID": "1JC06", "Water Body Name": "Diansoit", "Sub-Region Office": "Kericho", "Rating Curve": "Yes" }, "geometry": { "type": "Point", "coordinates": [ 35.24861, -0.40694 ] } },
{ "type": "Feature", "properties": { "Nat_ID": "1JC07", "Water Body Name": "Timbilil", "Sub-Region Office": "Kericho", "Rating Curve": "Yes" }, "geometry": { "type": "Point", "coordinates": [ 35.33333, -0.38056 ] } },
{ "type": "Feature", "properties": { "Nat_ID": "1JC08", "Water Body Name": "Timbilil", "Sub-Region Office": "Kericho", "Rating Curve": "Yes" }, "geometry": { "type": "Point", "coordinates": [ 35.31667, -0.38611 ] } },
{ "type": "Feature", "properties": { "Nat_ID": "1JC09", "Water Body Name": "Kimugung", "Sub-Region Office": "Kericho", "Rating Curve": "Yes" }, "geometry": { "type": "Point", "coordinates": [ 35.25139, -0.40694 ] } },
{ "type": "Feature", "properties": { "Nat_ID": "1JC10", "Water Body Name": "Saosa", "Sub-Region Office": "Kericho", "Rating Curve": "No" }, "geometry": { "type": "Point", "coordinates": [ 35.30556, -0.42361 ] } },
{ "type": "Feature", "properties": { "Nat_ID": "1JC11", "Water Body Name": "Saosa", "Sub-Region Office": "Kericho", "Rating Curve": "Yes" }, "geometry": { "type": "Point", "coordinates": [ 35.23472, -0.42222 ] } },
{ "type": "Feature", "properties": { "Nat_ID": "1JC12", "Water Body Name": "Kimugu", "Sub-Region Office": "Kericho", "Rating Curve": "No" }, "geometry": { "type": "Point", "coordinates": [ 35.23333, -0.42083 ] } },
{ "type": "Feature", "properties": { "Nat_ID": "1JC13", "Water Body Name": "Sambret", "Sub-Region Office": "Kericho", "Rating Curve": "Yes" }, "geometry": { "type": "Point", "coordinates": [ 35.36389, -0.37361 ] } },
{ "type": "Feature", "properties": { "Nat_ID": "1JC14", "Water Body Name": "Lagan", "Sub-Region Office": "Kericho", "Rating Curve": "No" }, "geometry": { "type": "Point", "coordinates": [ 35.33333, -0.40278 ] } },
{ "type": "Feature", "properties": { "Nat_ID": "1JC15", "Water Body Name": "Sambret", "Sub-Region Office": "Kericho", "Rating Curve": "No" }, "geometry": { "type": "Point", "coordinates": [ 35.39028, -0.36389 ] } },
{ "type": "Feature", "properties": { "Nat_ID": "1JC16", "Water Body Name": "Sambret", "Sub-Region Office": "Kericho", "Rating Curve": "No" }, "geometry": { "type": "Point", "coordinates": [ 35.37778, -0.36528 ] } },
{ "type": "Feature", "properties": { "Nat_ID": "1JC17", "Water Body Name": "Menet", "Sub-Region Office": "Kericho", "Rating Curve": "No" }, "geometry": { "type": "Point", "coordinates": [ 35.35556, -0.37083 ] } },
{ "type": "Feature", "properties": { "Nat_ID": "1JC19", "Water Body Name": "Kimugu", "Sub-Region Office": "Kericho", "Rating Curve": "No" }, "geometry": { "type": "Point", "coordinates": [ 35.70449, -0.20609 ] } },
{ "type": "Feature", "properties": { "Nat_ID": "1JD01", "Water Body Name": "Lesser Ainabkoi", "Sub-Region Office": "Kericho", "Rating Curve": "Yes" }, "geometry": { "type": "Point", "coordinates": [ 35.14167, -0.44167 ] } },
{ "type": "Feature", "properties": { "Nat_ID": "1JD02", "Water Body Name": "Yurith Chemosiet", "Sub-Region Office": "Kericho", "Rating Curve": "Yes" }, "geometry": { "type": "Point", "coordinates": [ 35.14167, -0.45694 ] } },
{ "type": "Feature", "properties": { "Nat_ID": "1JD03", "Water Body Name": "Yurith", "Sub-Region Office": "Kericho", "Rating Curve": "Yes" }, "geometry": { "type": "Point", "coordinates": [ 35.0779, -0.4854 ] } },
{ "type": "Feature", "properties": { "Nat_ID": "1JD04", "Water Body Name": "Ainapkoi", "Sub-Region Office": "Kericho", "Rating Curve": "No" }, "geometry": { "type": "Point", "coordinates": [ 35.74039, -0.35428 ] } },
{ "type": "Feature", "properties": { "Nat_ID": "1JE01", "Water Body Name": "Sisei", "Sub-Region Office": "Kericho", "Rating Curve": "Yes" }, "geometry": { "type": "Point", "coordinates": [ 35.10694, -0.71389 ] } },
{ "type": "Feature", "properties": { "Nat_ID": "1JF01", "Water Body Name": "Kipsonoi", "Sub-Region Office": "Kericho", "Rating Curve": "Yes" }, "geometry": { "type": "Point", "coordinates": [ 35.07917, -0.5125 ] } },
{ "type": "Feature", "properties": { "Nat_ID": "1JF02", "Water Body Name": "Kipsonoi", "Sub-Region Office": "Kericho", "Rating Curve": "Yes" }, "geometry": { "type": "Point", "coordinates": [ 35.12222, -0.69861 ] } },
{ "type": "Feature", "properties": { "Nat_ID": "1JF03", "Water Body Name": "Kipsonoi", "Sub-Region Office": "Kericho", "Rating Curve": "Yes" }, "geometry": { "type": "Point", "coordinates": [ 35.29444, -0.65 ] } },
{ "type": "Feature", "properties": { "Nat_ID": "1JF04", "Water Body Name": "Kipsonoi", "Sub-Region Office": "Kericho", "Rating Curve": "Yes" }, "geometry": { "type": "Point", "coordinates": [ 35.61389, -0.45 ] } },
{ "type": "Feature", "properties": { "Nat_ID": "1JF06", "Water Body Name": "Kipsonoi", "Sub-Region Office": "Kericho", "Rating Curve": "Yes" }, "geometry": { "type": "Point", "coordinates": [ 35.22129, -0.70851 ] } },
{ "type": "Feature", "properties": { "Nat_ID": "1JF07", "Water Body Name": "Kipsonoi Kapsimbiri", "Sub-Region Office": "Kericho", "Rating Curve": "Yes" }, "geometry": { "type": "Point", "coordinates": [ 35.08556, -0.59028 ] } },
{ "type": "Feature", "properties": { "Nat_ID": "1JF08", "Water Body Name": "Kipsonoi", "Sub-Region Office": "Kericho", "Rating Curve": "No" }, "geometry": { "type": "Point", "coordinates": [ 35.0801, -0.51463 ] } },
{ "type": "Feature", "properties": { "Nat_ID": "1JG01", "Water Body Name": "Sondu", "Sub-Region Office": "Kericho", "Rating Curve": "Yes" }, "geometry": { "type": "Point", "coordinates": [ 35.00833, -0.39306 ] } },
{ "type": "Feature", "properties": { "Nat_ID": "1JG02", "Water Body Name": "Miriu", "Sub-Region Office": "Kericho", "Rating Curve": "Yes" }, "geometry": { "type": "Point", "coordinates": [ 34.8125, -0.34722 ] } },
{ "type": "Feature", "properties": { "Nat_ID": "1JG03", "Water Body Name": "Miriu Sondu", "Sub-Region Office": "Kericho", "Rating Curve": "Yes" }, "geometry": { "type": "Point", "coordinates": [ 34.79444, -0.34722 ] } },
{ "type": "Feature", "properties": { "Nat_ID": "1JG04", "Water Body Name": "Miriu Sondu", "Sub-Region Office": "Kericho", "Rating Curve": "Yes" }, "geometry": { "type": "Point", "coordinates": [ 34.80498, -0.35461 ] } },
{ "type": "Feature", "properties": { "Nat_ID": "1JG05", "Water Body Name": "Sondu", "Sub-Region Office": "Kericho", "Rating Curve": "Yes" }, "geometry": { "type": "Point", "coordinates": [ 35.01698, -0.39664 ] } },
{ "type": "Feature", "properties": { "Nat_ID": "1KA05", "Water Body Name": "Nyakomisaro", "Sub-Region Office": "Kisii", "Rating Curve": "Yes" }, "geometry": { "type": "Point", "coordinates": [ 34.78333, -0.69028 ] } },
{ "type": "Feature", "properties": { "Nat_ID": "1KA08", "Water Body Name": "Riana", "Sub-Region Office": "Kisii", "Rating Curve": "Yes" }, "geometry": { "type": "Point", "coordinates": [ 34.53056, -0.68889 ] } },
{ "type": "Feature", "properties": { "Nat_ID": "1KA09", "Water Body Name": "Riana", "Sub-Region Office": "Kisii", "Rating Curve": "Yes" }, "geometry": { "type": "Point", "coordinates": [ 34.51667, -0.71389 ] } },
{ "type": "Feature", "properties": { "Nat_ID": "1KA10", "Water Body Name": "Misadhi", "Sub-Region Office": "Kisii", "Rating Curve": "No" }, "geometry": { "type": "Point", "coordinates": [ 34.62639, -0.75917 ] } },
{ "type": "Feature", "properties": { "Nat_ID": "1KB01", "Water Body Name": "Gucha", "Sub-Region Office": "Kisii", "Rating Curve": "Yes" }, "geometry": { "type": "Point", "coordinates": [ 34.27222, -0.94861 ] } },
{ "type": "Feature", "properties": { "Nat_ID": "1KB01A", "Water Body Name": "Gucha Macalder", "Sub-Region Office": "Kisii", "Rating Curve": "Yes" }, "geometry": { "type": "Point", "coordinates": [ 34.27424, -0.95419 ] } },
{ "type": "Feature", "properties": { "Nat_ID": "1KB03", "Water Body Name": "Gucha", "Sub-Region Office": "Kisii", "Rating Curve": "Yes" }, "geometry": { "type": "Point", "coordinates": [ 34.57205, -0.80922 ] } },
{ "type": "Feature", "properties": { "Nat_ID": "1KB04", "Water Body Name": "Gucha", "Sub-Region Office": "Kisii", "Rating Curve": "No" }, "geometry": { "type": "Point", "coordinates": [ 34.8125, -0.75833 ] } },
{ "type": "Feature", "properties": { "Nat_ID": "1KB05", "Water Body Name": "Gucha Migori", "Sub-Region Office": "Kisii", "Rating Curve": "Yes" }, "geometry": { "type": "Point", "coordinates": [ 34.20694, -0.94722 ] } },
{ "type": "Feature", "properties": { "Nat_ID": "1KB07", "Water Body Name": "Gucha", "Sub-Region Office": "Kisii", "Rating Curve": "Yes" }, "geometry": { "type": "Point", "coordinates": [ 34.82083, -0.70833 ] } },
{ "type": "Feature", "properties": { "Nat_ID": "1KB08", "Water Body Name": "Riasuta", "Sub-Region Office": "Kisii", "Rating Curve": "No" }, "geometry": { "type": "Point", "coordinates": [ 34.66944, -0.89444 ] } },
{ "type": "Feature", "properties": { "Nat_ID": "1KB09", "Water Body Name": "Sare", "Sub-Region Office": "Kisii", "Rating Curve": "No" }, "geometry": { "type": "Point", "coordinates": [ 34.54778, -0.89944 ] } },
{ "type": "Feature", "properties": { "Nat_ID": "1KB10", "Water Body Name": "Nyangweta", "Sub-Region Office": "Kisii", "Rating Curve": "No" }, "geometry": { "type": "Point", "coordinates": [ 34.6742, -0.89809 ] } },
{ "type": "Feature", "properties": { "Nat_ID": "1KB11", "Water Body Name": "Oyani", "Sub-Region Office": "Kisii", "Rating Curve": "No" }, "geometry": { "type": "Point", "coordinates": [ 34.53312, -0.90415 ] } },
{ "type": "Feature", "properties": { "Nat_ID": "1KB12", "Water Body Name": "Kenyamware", "Sub-Region Office": "Kisii", "Rating Curve": "No" }, "geometry": { "type": "Point", "coordinates": [ 34.92139, -0.66667 ] } },
{ "type": "Feature", "properties": { "Nat_ID": "1KB13", "Water Body Name": "Mogunga", "Sub-Region Office": "Kisii", "Rating Curve": "No" }, "geometry": { "type": "Point", "coordinates": [ 34.76389, -0.85889 ] } },
{ "type": "Feature", "properties": { "Nat_ID": "1KB14", "Water Body Name": "Nyangweta", "Sub-Region Office": "Kisii", "Rating Curve": "No" }, "geometry": { "type": "Point", "coordinates": [ 34.62639, -0.84306 ] } },
{ "type": "Feature", "properties": { "Nat_ID": "1KC03", "Water Body Name": "Migori", "Sub-Region Office": "Kisii", "Rating Curve": "Yes" }, "geometry": { "type": "Point", "coordinates": [ 34.47124, -1.06648 ] } },
{ "type": "Feature", "properties": { "Nat_ID": "1KC04", "Water Body Name": "Migori", "Sub-Region Office": "Kisii", "Rating Curve": "Yes" }, "geometry": { "type": "Point", "coordinates": [ 34.29028, -0.98889 ] } },
{ "type": "Feature", "properties": { "Nat_ID": "1KC06", "Water Body Name": "Oltanki", "Sub-Region Office": "Kisii", "Rating Curve": "No" }, "geometry": { "type": "Point", "coordinates": [ 34.88333, -1.00833 ] } },
{ "type": "Feature", "properties": { "Nat_ID": "1KC07", "Water Body Name": "Enkaragetuak", "Sub-Region Office": "Kisii", "Rating Curve": "No" }, "geometry": { "type": "Point", "coordinates": [ 34.88333, -1.00833 ] } },
{ "type": "Feature", "properties": { "Nat_ID": "1KD", "Water Body Name": "Lake Victoria Muhuru Bay", "Sub-Region Office": "Kisii", "Rating Curve": "No" }, "geometry": { "type": "Point", "coordinates": [ 34.08889, -1.00278 ] } },
{ "type": "Feature", "properties": { "Nat_ID": "1LA01", "Water Body Name": "Nyangores", "Sub-Region Office": "Kericho", "Rating Curve": "Yes" }, "geometry": { "type": "Point", "coordinates": [ 35.35833, -0.73889 ] } },
{ "type": "Feature", "properties": { "Nat_ID": "1LA02", "Water Body Name": "Keringet", "Sub-Region Office": "Kericho", "Rating Curve": "No" }, "geometry": { "type": "Point", "coordinates": [ 35.68889, -0.4125 ] } },
{ "type": "Feature", "properties": { "Nat_ID": "1LA03", "Water Body Name": "Nyangores", "Sub-Region Office": "Kericho", "Rating Curve": "Yes" }, "geometry": { "type": "Point", "coordinates": [ 35.34635, -0.78986 ] } },
{ "type": "Feature", "properties": { "Nat_ID": "1LA04", "Water Body Name": "Mara", "Sub-Region Office": "Kericho", "Rating Curve": "No" }, "geometry": { "type": "Point", "coordinates": [ 35.03622, -1.22298 ] } },
{ "type": "Feature", "properties": { "Nat_ID": "1LA05", "Water Body Name": "Mara At Serena", "Sub-Region Office": "SSGMSRO", "Rating Curve": "No" }, "geometry": { "type": "Point", "coordinates": [ 35.0, -1.00004 ] } },
{ "type": "Feature", "properties": { "Nat_ID": "1LA06", "Water Body Name": "EMARTI", "Sub-Region Office": "0", "Rating Curve": "Yes" }, "geometry": { "type": "Point", "coordinates": [ 35.28678, -1.11276 ] } },
{ "type": "Feature", "properties": { "Nat_ID": "1LA07", "Water Body Name": "Sand River", "Sub-Region Office": "0", "Rating Curve": "Yes" }, "geometry": { "type": "Point", "coordinates": [ 35.21534, -1.65325 ] } },
{ "type": "Feature", "properties": { "Nat_ID": "1LA08", "Water Body Name": "Talek", "Sub-Region Office": "MSSRO", "Rating Curve": "No" }, "geometry": { "type": "Point", "coordinates": [ 35.20826, -1.44332 ] } },
{ "type": "Feature", "properties": { "Nat_ID": "1LB01", "Water Body Name": "Amala", "Sub-Region Office": "MSSRO", "Rating Curve": "No" }, "geometry": { "type": "Point", "coordinates": [ 35.41667, -0.94722 ] } },
{ "type": "Feature", "properties": { "Nat_ID": "1LB02", "Water Body Name": "Amala", "Sub-Region Office": "MSSRO", "Rating Curve": "Yes" }, "geometry": { "type": "Point", "coordinates": [ 35.4375, -0.89722 ] } },
{ "type": "Feature", "properties": { "Nat_ID": "2B01", "Water Body Name": "Suam", "Sub-Region Office": "Kapenguria", "Rating Curve": "No" }, "geometry": { "type": "Point", "coordinates": [ 34.75833, 1.22083 ] } },
{ "type": "Feature", "properties": { "Nat_ID": "2B02", "Water Body Name": "Kaptega", "Sub-Region Office": "Kapenguria", "Rating Curve": "Yes" }, "geometry": { "type": "Point", "coordinates": [ 34.77508, 1.20769 ] } },
{ "type": "Feature", "properties": { "Nat_ID": "2B02A", "Water Body Name": " ", "Sub-Region Office": "Kapenguria", "Rating Curve": "No" }, "geometry": { "type": "Point", "coordinates": [ 35.36155, 1.94025 ] } },
{ "type": "Feature", "properties": { "Nat_ID": "2B03", "Water Body Name": "Turwell", "Sub-Region Office": "Lodwar", "Rating Curve": "No" }, "geometry": { "type": "Point", "coordinates": [ 35.60694, 3.11528 ] } },
{ "type": "Feature", "properties": { "Nat_ID": "2B04", "Water Body Name": "Lake Turkana", "Sub-Region Office": "Lodwar", "Rating Curve": "No" }, "geometry": { "type": "Point", "coordinates": [ 35.6, 4.525 ] } },
{ "type": "Feature", "properties": { "Nat_ID": "2B05", "Water Body Name": "River Suam", "Sub-Region Office": "Kapenguria", "Rating Curve": "Yes" }, "geometry": { "type": "Point", "coordinates": [ 34.73307, 1.21566 ] } },
{ "type": "Feature", "properties": { "Nat_ID": "2B06", "Water Body Name": "Lake Turkana", "Sub-Region Office": "Lodwar", "Rating Curve": "No" }, "geometry": { "type": "Point", "coordinates": [ 35.9175, 3.55528 ] } },
{ "type": "Feature", "properties": { "Nat_ID": "2B07", "Water Body Name": "Suam", "Sub-Region Office": "Kapenguria", "Rating Curve": "Yes" }, "geometry": { "type": "Point", "coordinates": [ 35.00833, 1.48194 ] } },
{ "type": "Feature", "properties": { "Nat_ID": "2B08", "Water Body Name": "Weiwei", "Sub-Region Office": "Kapenguria", "Rating Curve": "Yes" }, "geometry": { "type": "Point", "coordinates": [ 35.46528, 1.39306 ] } },
{ "type": "Feature", "properties": { "Nat_ID": "2B09", "Water Body Name": "Morun", "Sub-Region Office": "Kapenguria", "Rating Curve": "No" }, "geometry": { "type": "Point", "coordinates": [ 35.47222, 1.53472 ] } },
{ "type": "Feature", "properties": { "Nat_ID": "2B10", "Water Body Name": "Kagwallas", "Sub-Region Office": "Lodwar", "Rating Curve": "No" }, "geometry": { "type": "Point", "coordinates": [ 35.59583, 3.12917 ] } },
{ "type": "Feature", "properties": { "Nat_ID": "2B11", "Water Body Name": "Lounon", "Sub-Region Office": "Kapenguria", "Rating Curve": "No" }, "geometry": { "type": "Point", "coordinates": [ 35.17222, 1.17861 ] } },
{ "type": "Feature", "properties": { "Nat_ID": "2B12", "Water Body Name": "Weiwei", "Sub-Region Office": "Kapenguria", "Rating Curve": "Yes" }, "geometry": { "type": "Point", "coordinates": [ 35.46806, 1.42083 ] } },
{ "type": "Feature", "properties": { "Nat_ID": "2B14", "Water Body Name": "Lake Turkana", "Sub-Region Office": "Lodwar", "Rating Curve": "No" }, "geometry": { "type": "Point", "coordinates": [ 35.89861, 3.51583 ] } },
{ "type": "Feature", "properties": { "Nat_ID": "2B15", "Water Body Name": "Weiwei", "Sub-Region Office": "Kapenguria", "Rating Curve": "Yes" }, "geometry": { "type": "Point", "coordinates": [ 35.46806, 1.42083 ] } },
{ "type": "Feature", "properties": { "Nat_ID": "2B16", "Water Body Name": "Morun", "Sub-Region Office": "Kapenguria", "Rating Curve": "No" }, "geometry": { "type": "Point", "coordinates": [ 35.45139, 1.53389 ] } },
{ "type": "Feature", "properties": { "Nat_ID": "2B17", "Water Body Name": "Malmalte", "Sub-Region Office": "Kapenguria", "Rating Curve": "Yes" }, "geometry": { "type": "Point", "coordinates": [ 35.45278, 1.87778 ] } },
{ "type": "Feature", "properties": { "Nat_ID": "2B19", "Water Body Name": "Morun", "Sub-Region Office": "Kapenguria", "Rating Curve": "No" }, "geometry": { "type": "Point", "coordinates": [ 35.40556, 1.5125 ] } },
{ "type": "Feature", "properties": { "Nat_ID": "2B20", "Water Body Name": "Konyao", "Sub-Region Office": "Kapenguria", "Rating Curve": "Yes" }, "geometry": { "type": "Point", "coordinates": [ 35.05092, 1.79369 ] } },
{ "type": "Feature", "properties": { "Nat_ID": "2B21", "Water Body Name": "Turkwel", "Sub-Region Office": "Lodwar", "Rating Curve": "Yes" }, "geometry": { "type": "Point", "coordinates": [ 35.60521, 3.1139 ] } },
{ "type": "Feature", "properties": { "Nat_ID": "2B22", "Water Body Name": "Turkwel", "Sub-Region Office": "Lodwar", "Rating Curve": "No" }, "geometry": { "type": "Point", "coordinates": [ 35.38833, 2.22111 ] } },
{ "type": "Feature", "properties": { "Nat_ID": "2B24", "Water Body Name": "Morun", "Sub-Region Office": "Kapenguria", "Rating Curve": "Yes" }, "geometry": { "type": "Point", "coordinates": [ 35.42889, 1.5287 ] } },
{ "type": "Feature", "properties": { "Nat_ID": "2B25", "Water Body Name": "Lake Turkana", "Sub-Region Office": "Lodwar", "Rating Curve": "No" }, "geometry": { "type": "Point", "coordinates": [ 35.92778, 3.53889 ] } },
{ "type": "Feature", "properties": { "Nat_ID": "2B26", "Water Body Name": "Malmalte", "Sub-Region Office": "Kapenguria", "Rating Curve": "Yes" }, "geometry": { "type": "Point", "coordinates": [ 35.45278, 1.89444 ] } },
{ "type": "Feature", "properties": { "Nat_ID": "2B27", "Water Body Name": "Turkwel", "Sub-Region Office": "Kapenguria", "Rating Curve": "Yes" }, "geometry": { "type": "Point", "coordinates": [ 35.375, 1.92917 ] } },
{ "type": "Feature", "properties": { "Nat_ID": "2B27A", "Water Body Name": "Turkwel", "Sub-Region Office": "Kapenguria", "Rating Curve": "Yes" }, "geometry": { "type": "Point", "coordinates": [ 35.375, 1.92917 ] } },
{ "type": "Feature", "properties": { "Nat_ID": "2B27B", "Water Body Name": "Turkwel", "Sub-Region Office": "Kapenguria", "Rating Curve": "Yes" }, "geometry": { "type": "Point", "coordinates": [ 35.375, 1.92917 ] } },
{ "type": "Feature", "properties": { "Nat_ID": "2B28", "Water Body Name": "Weiwei", "Sub-Region Office": "Kapenguria", "Rating Curve": "Yes" }, "geometry": { "type": "Point", "coordinates": [ 35.489, 1.4739 ] } },
{ "type": "Feature", "properties": { "Nat_ID": "2B29", "Water Body Name": "Lake Turkana", "Sub-Region Office": "Lodwar", "Rating Curve": "No" }, "geometry": { "type": "Point", "coordinates": [ 35.92361, 4.27778 ] } },
{ "type": "Feature", "properties": { "Nat_ID": "2B30", "Water Body Name": "Malmalte_Turkwell", "Sub-Region Office": "Kapenguria", "Rating Curve": "Yes" }, "geometry": { "type": "Point", "coordinates": [ 35.4966, 1.77148 ] } },
{ "type": "Feature", "properties": { "Nat_ID": "2B31", "Water Body Name": "Morun", "Sub-Region Office": "Kapenguria", "Rating Curve": "Yes" }, "geometry": { "type": "Point", "coordinates": [ 35.45, 1.53194 ] } },
{ "type": "Feature", "properties": { "Nat_ID": "2B32", "Water Body Name": "Morun", "Sub-Region Office": "Kapenguria", "Rating Curve": "No" }, "geometry": { "type": "Point", "coordinates": [ 35.32979, 1.40313 ] } },
{ "type": "Feature", "properties": { "Nat_ID": "2B33", "Water Body Name": "Suam", "Sub-Region Office": "Kapenguria", "Rating Curve": "No" }, "geometry": { "type": "Point", "coordinates": [ 35.03107, 1.48002 ] } },
{ "type": "Feature", "properties": { "Nat_ID": "2B34", "Water Body Name": "Kotorok", "Sub-Region Office": "Kapenguria", "Rating Curve": "No" }, "geometry": { "type": "Point", "coordinates": [ 35.09214, 1.26616 ] } },
{ "type": "Feature", "properties": { "Nat_ID": "2C NEW", "Water Body Name": "Yeptos", "Sub-Region Office": "Kabarnet", "Rating Curve": null }, "geometry": { "type": "Point", "coordinates": [ 35.70288, 0.70922 ] } },
{ "type": "Feature", "properties": { "Nat_ID": "2C01", "Water Body Name": "Tambach", "Sub-Region Office": "Kabarnet", "Rating Curve": "Yes" }, "geometry": { "type": "Point", "coordinates": [ 35.51667, 0.57694 ] } },
{ "type": "Feature", "properties": { "Nat_ID": "2C02", "Water Body Name": "S. Spring(North)", "Sub-Region Office": "Kabarnet", "Rating Curve": "No" }, "geometry": { "type": "Point", "coordinates": [ 34.59795, 4.36624 ] } },
{ "type": "Feature", "properties": { "Nat_ID": "2C03", "Water Body Name": "S.Spring(South)", "Sub-Region Office": "Kabarnet", "Rating Curve": "No" }, "geometry": { "type": "Point", "coordinates": [ 35.2483, 4.11333 ] } },
{ "type": "Feature", "properties": { "Nat_ID": "2C04", "Water Body Name": "Emabara Dam", "Sub-Region Office": "Kabarnet", "Rating Curve": "No" }, "geometry": { "type": "Point", "coordinates": [ 35.73472, 0.49583 ] } },
{ "type": "Feature", "properties": { "Nat_ID": "2C05", "Water Body Name": "Arror", "Sub-Region Office": "Kabarnet", "Rating Curve": "Yes" }, "geometry": { "type": "Point", "coordinates": [ 35.56702, 0.98047 ] } },
{ "type": "Feature", "properties": { "Nat_ID": "2C06", "Water Body Name": "Kessup", "Sub-Region Office": "Kabarnet", "Rating Curve": "Yes" }, "geometry": { "type": "Point", "coordinates": [ 35.51156, 0.63528 ] } },
{ "type": "Feature", "properties": { "Nat_ID": "2C07", "Water Body Name": "Ndo", "Sub-Region Office": "Kabarnet", "Rating Curve": "Yes" }, "geometry": { "type": "Point", "coordinates": [ 35.64838, 0.45329 ] } },
{ "type": "Feature", "properties": { "Nat_ID": "2C08", "Water Body Name": "Kerio", "Sub-Region Office": "Lodwar", "Rating Curve": "Yes" }, "geometry": { "type": "Point", "coordinates": [ 36.00628, 1.91464 ] } },
{ "type": "Feature", "properties": { "Nat_ID": "2C09", "Water Body Name": "Kamarin", "Sub-Region Office": "Kabarnet", "Rating Curve": "No" }, "geometry": { "type": "Point", "coordinates": [ 34.81473, 3.42684 ] } },
{ "type": "Feature", "properties": { "Nat_ID": "2C10", "Water Body Name": "Kessup", "Sub-Region Office": "Kabarnet", "Rating Curve": "No" }, "geometry": { "type": "Point", "coordinates": [ 35.5017, 0.6293 ] } },
{ "type": "Feature", "properties": { "Nat_ID": "2C11", "Water Body Name": "Kessup", "Sub-Region Office": "Kabarnet", "Rating Curve": "No" }, "geometry": { "type": "Point", "coordinates": [ 35.49444, 0.60833 ] } },
{ "type": "Feature", "properties": { "Nat_ID": "2C12", "Water Body Name": "Embobut", "Sub-Region Office": "Kabarnet", "Rating Curve": "Yes" }, "geometry": { "type": "Point", "coordinates": [ 35.59875, 1.17576 ] } },
{ "type": "Feature", "properties": { "Nat_ID": "2C13", "Water Body Name": "Torok", "Sub-Region Office": "Kabarnet", "Rating Curve": "Yes" }, "geometry": { "type": "Point", "coordinates": [ 35.53604, 0.54688 ] } },
{ "type": "Feature", "properties": { "Nat_ID": "2C14", "Water Body Name": "Kimwarer", "Sub-Region Office": "Kabarnet", "Rating Curve": "Yes" }, "geometry": { "type": "Point", "coordinates": [ 35.63317, 0.31279 ] } },
{ "type": "Feature", "properties": { "Nat_ID": "2C15", "Water Body Name": "Mong", "Sub-Region Office": "Kabarnet", "Rating Curve": "No" }, "geometry": { "type": "Point", "coordinates": [ 35.61552, 0.3043 ] } },
{ "type": "Feature", "properties": { "Nat_ID": "2C16", "Water Body Name": "Kerio", "Sub-Region Office": "Kabarnet", "Rating Curve": "Yes" }, "geometry": { "type": "Point", "coordinates": [ 35.70944, 1.2175 ] } },
{ "type": "Feature", "properties": { "Nat_ID": "2C17", "Water Body Name": "Kerio", "Sub-Region Office": "Kabarnet", "Rating Curve": "Yes" }, "geometry": { "type": "Point", "coordinates": [ 35.63333, 0.96111 ] } },
{ "type": "Feature", "properties": { "Nat_ID": "2C18", "Water Body Name": "Arror", "Sub-Region Office": "Kabarnet", "Rating Curve": "Yes" }, "geometry": { "type": "Point", "coordinates": [ 35.63556, 1.94639 ] } },
{ "type": "Feature", "properties": { "Nat_ID": "2C19", "Water Body Name": "Kimwarer", "Sub-Region Office": "Kabarnet", "Rating Curve": "No" }, "geometry": { "type": "Point", "coordinates": [ 36.37171, 2.13582 ] } },
{ "type": "Feature", "properties": { "Nat_ID": "2C20", "Water Body Name": "Cheplambus Chepsaa", "Sub-Region Office": "Kabarnet", "Rating Curve": "No" }, "geometry": { "type": "Point", "coordinates": [ 36.37171, 2.13582 ] } },
{ "type": "Feature", "properties": { "Nat_ID": "2D01", "Water Body Name": "Suguta", "Sub-Region Office": "Kabarnet", "Rating Curve": "Yes" }, "geometry": { "type": "Point", "coordinates": [ 36.10675, 1.18119 ] } },
{ "type": "Feature", "properties": { "Nat_ID": "2D01A", "Water Body Name": " ", "Sub-Region Office": "0", "Rating Curve": "No" }, "geometry": { "type": "Point", "coordinates": [ 36.37171, 2.13582 ] } },
{ "type": "Feature", "properties": { "Nat_ID": "2D02", "Water Body Name": "Amaiya", "Sub-Region Office": "Kabarnet", "Rating Curve": "No" }, "geometry": { "type": "Point", "coordinates": [ 36.275, 0.52 ] } },
{ "type": "Feature", "properties": { "Nat_ID": "2EA01", "Water Body Name": "Maji Matamu", "Sub-Region Office": "Kabarnet", "Rating Curve": "No" }, "geometry": { "type": "Point", "coordinates": [ 36.16529, 0.02935 ] } },
{ "type": "Feature", "properties": { "Nat_ID": "2EB01", "Water Body Name": "Wards Stream", "Sub-Region Office": "Kabarnet", "Rating Curve": "Yes" }, "geometry": { "type": "Point", "coordinates": [ 36.23723, 0.0561 ] } },
{ "type": "Feature", "properties": { "Nat_ID": "2EB03", "Water Body Name": "Subukia", "Sub-Region Office": "Kabarnet", "Rating Curve": "Yes" }, "geometry": { "type": "Point", "coordinates": [ 36.21786, 0.18453 ] } },
{ "type": "Feature", "properties": { "Nat_ID": "2EB04", "Water Body Name": "Lesser Subukia", "Sub-Region Office": "Kabarnet", "Rating Curve": "Yes" }, "geometry": { "type": "Point", "coordinates": [ 36.24694, 0.14444 ] } },
{ "type": "Feature", "properties": { "Nat_ID": "2EB05", "Water Body Name": "Waseges", "Sub-Region Office": "Kabarnet", "Rating Curve": "No" }, "geometry": { "type": "Point", "coordinates": [ 36.0897, 0.39041 ] } },
{ "type": "Feature", "properties": { "Nat_ID": "2EB06", "Water Body Name": " ", "Sub-Region Office": "Kabarnet", "Rating Curve": "Yes" }, "geometry": { "type": "Point", "coordinates": [ 36.37171, 2.13582 ] } },
{ "type": "Feature", "properties": { "Nat_ID": "2EB08", "Water Body Name": "Waseges", "Sub-Region Office": "Kabarnet", "Rating Curve": "No" }, "geometry": { "type": "Point", "coordinates": [ 36.07428, 0.34709 ] } },
{ "type": "Feature", "properties": { "Nat_ID": "2EB09", "Water Body Name": "Emsos", "Sub-Region Office": "Kabarnet", "Rating Curve": "No" }, "geometry": { "type": "Point", "coordinates": [ 36.10895, 0.1814 ] } },
{ "type": "Feature", "properties": { "Nat_ID": "2EB10", "Water Body Name": "Lake Bogoria", "Sub-Region Office": "Kabarnet", "Rating Curve": null }, "geometry": { "type": "Point", "coordinates": [ 36.07584, 0.30705 ] } },
{ "type": "Feature", "properties": { "Nat_ID": "2EC01", "Water Body Name": "Olobanaita", "Sub-Region Office": "Kabarnet", "Rating Curve": "Yes" }, "geometry": { "type": "Point", "coordinates": [ 36.15384, 0.00078 ] } },
{ "type": "Feature", "properties": { "Nat_ID": "2EC02", "Water Body Name": "Rongai", "Sub-Region Office": "Kabarnet", "Rating Curve": "Yes" }, "geometry": { "type": "Point", "coordinates": [ 35.93295, -0.10769 ] } },
{ "type": "Feature", "properties": { "Nat_ID": "2EC03", "Water Body Name": "Rongai", "Sub-Region Office": "Kabarnet", "Rating Curve": "Yes" }, "geometry": { "type": "Point", "coordinates": [ 35.84768, -0.3163 ] } },
{ "type": "Feature", "properties": { "Nat_ID": "2EC04", "Water Body Name": "Swamp Canal", "Sub-Region Office": "Kabarnet", "Rating Curve": "Yes" }, "geometry": { "type": "Point", "coordinates": [ 35.86111, 0.20556 ] } },
{ "type": "Feature", "properties": { "Nat_ID": "2EC05", "Water Body Name": "Rongai", "Sub-Region Office": "Kabarnet", "Rating Curve": "Yes" }, "geometry": { "type": "Point", "coordinates": [ 35.83889, 0.40056 ] } },
{ "type": "Feature", "properties": { "Nat_ID": "2EC06", "Water Body Name": "Rongai", "Sub-Region Office": "Kabarnet", "Rating Curve": "Yes" }, "geometry": { "type": "Point", "coordinates": [ 35.82778, 0.36833 ] } },
{ "type": "Feature", "properties": { "Nat_ID": "2EC07", "Water Body Name": "Rongai", "Sub-Region Office": "Kabarnet", "Rating Curve": "Yes" }, "geometry": { "type": "Point", "coordinates": [ 35.83556, 0.38889 ] } },
{ "type": "Feature", "properties": { "Nat_ID": "2EC08", "Water Body Name": "Rongai Tunnel", "Sub-Region Office": "Kabarnet", "Rating Curve": "Yes" }, "geometry": { "type": "Point", "coordinates": [ 35.83556, 0.38889 ] } },
{ "type": "Feature", "properties": { "Nat_ID": "2ED01", "Water Body Name": "Tigeri", "Sub-Region Office": "Kabarnet", "Rating Curve": "Yes" }, "geometry": { "type": "Point", "coordinates": [ 35.69002, 0.10021 ] } },
{ "type": "Feature", "properties": { "Nat_ID": "2ED02", "Water Body Name": "Lelget", "Sub-Region Office": "Kabarnet", "Rating Curve": "Yes" }, "geometry": { "type": "Point", "coordinates": [ 35.69991, 0.05917 ] } },
{ "type": "Feature", "properties": { "Nat_ID": "2ED03", "Water Body Name": "Eldama", "Sub-Region Office": "Kabarnet", "Rating Curve": "Yes" }, "geometry": { "type": "Point", "coordinates": [ 35.72165, 0.04675 ] } },
{ "type": "Feature", "properties": { "Nat_ID": "2EE02", "Water Body Name": "Perkerra", "Sub-Region Office": "Kabarnet", "Rating Curve": "Yes" }, "geometry": { "type": "Point", "coordinates": [ 35.93333, 0.45 ] } },
{ "type": "Feature", "properties": { "Nat_ID": "2EE03", "Water Body Name": "Perkerra", "Sub-Region Office": "Kabarnet", "Rating Curve": "Yes" }, "geometry": { "type": "Point", "coordinates": [ 35.96528, 0.45639 ] } },
{ "type": "Feature", "properties": { "Nat_ID": "2EE04", "Water Body Name": "Perkerra", "Sub-Region Office": "Kabarnet", "Rating Curve": "Yes" }, "geometry": { "type": "Point", "coordinates": [ 35.96889, 0.45917 ] } },
{ "type": "Feature", "properties": { "Nat_ID": "2EE06", "Water Body Name": "Perkerra", "Sub-Region Office": "Kabarnet", "Rating Curve": "No" }, "geometry": { "type": "Point", "coordinates": [ 36.03333, 0.45 ] } },
{ "type": "Feature", "properties": { "Nat_ID": "2EE07", "Water Body Name": "Perkerra", "Sub-Region Office": "Kabarnet", "Rating Curve": "Yes" }, "geometry": { "type": "Point", "coordinates": [ 35.96583, 0.4575 ] } },
{ "type": "Feature", "properties": { "Nat_ID": "2EE07A", "Water Body Name": "Perkerra", "Sub-Region Office": "Kabarnet", "Rating Curve": "Yes" }, "geometry": { "type": "Point", "coordinates": [ 35.97222, 0.46194 ] } },
{ "type": "Feature", "properties": { "Nat_ID": "2EE07B", "Water Body Name": "Perkerra", "Sub-Region Office": "Kabarnet", "Rating Curve": "No" }, "geometry": { "type": "Point", "coordinates": [ 35.96966, 0.45903 ] } },
{ "type": "Feature", "properties": { "Nat_ID": "2EE08", "Water Body Name": "Perkerra", "Sub-Region Office": "Kabarnet", "Rating Curve": "Yes" }, "geometry": { "type": "Point", "coordinates": [ 35.81944, 0.165 ] } },
{ "type": "Feature", "properties": { "Nat_ID": "2EE09", "Water Body Name": "Perkerra", "Sub-Region Office": "Kabarnet", "Rating Curve": "Yes" }, "geometry": { "type": "Point", "coordinates": [ 35.87444, 0.24167 ] } },
{ "type": "Feature", "properties": { "Nat_ID": "2EF01", "Water Body Name": "Emining Esageri", "Sub-Region Office": "Kabarnet", "Rating Curve": "No" }, "geometry": { "type": "Point", "coordinates": [ 35.87861, 0.23333 ] } },
{ "type": "Feature", "properties": { "Nat_ID": "2EF02", "Water Body Name": "Emining Esageri", "Sub-Region Office": "Kabarnet", "Rating Curve": "No" }, "geometry": { "type": "Point", "coordinates": [ 35.88417, 0.13556 ] } },
{ "type": "Feature", "properties": { "Nat_ID": "2EF03", "Water Body Name": "Esageri", "Sub-Region Office": "Kabarnet", "Rating Curve": "Yes" }, "geometry": { "type": "Point", "coordinates": [ 35.82415, 0.01752 ] } },
{ "type": "Feature", "properties": { "Nat_ID": "2EF04", "Water Body Name": "Narasura", "Sub-Region Office": "Kabarnet", "Rating Curve": "Yes" }, "geometry": { "type": "Point", "coordinates": [ 35.7837, 0.0224 ] } },
{ "type": "Feature", "properties": { "Nat_ID": "2EF05", "Water Body Name": "Esageri", "Sub-Region Office": "Kabarnet", "Rating Curve": "No" }, "geometry": { "type": "Point", "coordinates": [ 35.86667, 0.23333 ] } },
{ "type": "Feature", "properties": { "Nat_ID": "2EG01", "Water Body Name": "Molo", "Sub-Region Office": "Kabarnet", "Rating Curve": "Yes" }, "geometry": { "type": "Point", "coordinates": [ 35.91398, -0.0836 ] } },
{ "type": "Feature", "properties": { "Nat_ID": "2EG02", "Water Body Name": "Mariashoni", "Sub-Region Office": "Kabarnet", "Rating Curve": "Yes" }, "geometry": { "type": "Point", "coordinates": [ 35.81417, 0.38667 ] } },
{ "type": "Feature", "properties": { "Nat_ID": "2EG03", "Water Body Name": "Molo", "Sub-Region Office": "Kabarnet", "Rating Curve": "No" }, "geometry": { "type": "Point", "coordinates": [ 35.99776, 0.43175 ] } },
{ "type": "Feature", "properties": { "Nat_ID": "2EG04", "Water Body Name": "Munji", "Sub-Region Office": "Kabarnet", "Rating Curve": "No" }, "geometry": { "type": "Point", "coordinates": [ 35.781, -0.23 ] } },
{ "type": "Feature", "properties": { "Nat_ID": "2EG06", "Water Body Name": "Mau", "Sub-Region Office": "Kabarnet", "Rating Curve": "No" }, "geometry": { "type": "Point", "coordinates": [ 35.78472, 0.28056 ] } },
{ "type": "Feature", "properties": { "Nat_ID": "2EG07", "Water Body Name": "Nguso Springs", "Sub-Region Office": "Kabarnet", "Rating Curve": "No" }, "geometry": { "type": "Point", "coordinates": [ 35.76389, 0.19167 ] } },
{ "type": "Feature", "properties": { "Nat_ID": "2EG08", "Water Body Name": "Lorwai", "Sub-Region Office": "Kabarnet", "Rating Curve": "No" }, "geometry": { "type": "Point", "coordinates": [ 36.04611, 0.35583 ] } },
{ "type": "Feature", "properties": { "Nat_ID": "2EH NEW", "Water Body Name": "Kirandich Dam", "Sub-Region Office": "Kabarnet", "Rating Curve": null }, "geometry": { "type": "Point", "coordinates": [ 35.7805, 0.5008 ] } },
{ "type": "Feature", "properties": { "Nat_ID": "2EH01", "Water Body Name": "Lake Baringo", "Sub-Region Office": "Kabarnet", "Rating Curve": "No" }, "geometry": { "type": "Point", "coordinates": [ 36.02763, 0.61854 ] } },
{ "type": "Feature", "properties": { "Nat_ID": "2EH02", "Water Body Name": "Kinyo", "Sub-Region Office": "Kabarnet", "Rating Curve": "Yes" }, "geometry": { "type": "Point", "coordinates": [ 35.77778, 0.48056 ] } },
{ "type": "Feature", "properties": { "Nat_ID": "2EH03", "Water Body Name": "Endao", "Sub-Region Office": "Kabarnet", "Rating Curve": "No" }, "geometry": { "type": "Point", "coordinates": [ 35.88056, 0.52083 ] } },
{ "type": "Feature", "properties": { "Nat_ID": "2EK01", "Water Body Name": "Ol Arabel", "Sub-Region Office": "Kabarnet", "Rating Curve": "No" }, "geometry": { "type": "Point", "coordinates": [ 36.32917, 0.21667 ] } },
{ "type": "Feature", "properties": { "Nat_ID": "2FA02", "Water Body Name": "Mereroni", "Sub-Region Office": "Naivasha", "Rating Curve": "Yes" }, "geometry": { "type": "Point", "coordinates": [ 36.19889, -0.35722 ] } },
{ "type": "Feature", "properties": { "Nat_ID": "2FA08", "Water Body Name": "Mereroni", "Sub-Region Office": "Naivasha", "Rating Curve": "Yes" }, "geometry": { "type": "Point", "coordinates": [ 36.22223, -0.39665 ] } },
{ "type": "Feature", "properties": { "Nat_ID": "2FA09", "Water Body Name": "Lake Elementaita", "Sub-Region Office": "Naivasha", "Rating Curve": "No" }, "geometry": { "type": "Point", "coordinates": [ 36.23649, -0.40458 ] } },
{ "type": "Feature", "properties": { "Nat_ID": "2FA10", "Water Body Name": "Mereroni", "Sub-Region Office": "Naivasha", "Rating Curve": "Yes" }, "geometry": { "type": "Point", "coordinates": [ 36.20056, -0.3525 ] } },
{ "type": "Feature", "properties": { "Nat_ID": "2FB03", "Water Body Name": "Crator Stream", "Sub-Region Office": "Naivasha", "Rating Curve": "No" }, "geometry": { "type": "Point", "coordinates": [ 36.37171, 2.13582 ] } },
{ "type": "Feature", "properties": { "Nat_ID": "2FC03", "Water Body Name": "Njoro", "Sub-Region Office": "Naivasha", "Rating Curve": "No" }, "geometry": { "type": "Point", "coordinates": [ 35.93889, -0.4675 ] } },
{ "type": "Feature", "properties": { "Nat_ID": "2FC04", "Water Body Name": "Lake Nakuru", "Sub-Region Office": "Naivasha", "Rating Curve": "No" }, "geometry": { "type": "Point", "coordinates": [ 36.08419, -0.32128 ] } },
{ "type": "Feature", "properties": { "Nat_ID": "2FC05", "Water Body Name": "Njoro", "Sub-Region Office": "Naivasha", "Rating Curve": "Yes" }, "geometry": { "type": "Point", "coordinates": [ 35.92797, -0.37458 ] } },
{ "type": "Feature", "properties": { "Nat_ID": "2FC06", "Water Body Name": "Ngosur", "Sub-Region Office": "Naivasha", "Rating Curve": null }, "geometry": { "type": "Point", "coordinates": [ 36.17569, -0.21691 ] } },
{ "type": "Feature", "properties": { "Nat_ID": "2FC07", "Water Body Name": "Ngosur", "Sub-Region Office": "Naivasha", "Rating Curve": "Yes" }, "geometry": { "type": "Point", "coordinates": [ 36.18333, -0.21111 ] } },
{ "type": "Feature", "properties": { "Nat_ID": "2FC09", "Water Body Name": "Njoro", "Sub-Region Office": "Naivasha", "Rating Curve": "Yes" }, "geometry": { "type": "Point", "coordinates": [ 35.98611, -0.30056 ] } },
{ "type": "Feature", "properties": { "Nat_ID": "2FC11", "Water Body Name": "Little Shuru", "Sub-Region Office": "Kabarnet", "Rating Curve": "Yes" }, "geometry": { "type": "Point", "coordinates": [ 36.37171, 2.13582 ] } },
{ "type": "Feature", "properties": { "Nat_ID": "2FC12", "Water Body Name": "West Acre", "Sub-Region Office": "Naivasha", "Rating Curve": "Yes" }, "geometry": { "type": "Point", "coordinates": [ 36.18083, -0.19694 ] } },
{ "type": "Feature", "properties": { "Nat_ID": "2FC13", "Water Body Name": "Effluent", "Sub-Region Office": "Naivasha", "Rating Curve": "Yes" }, "geometry": { "type": "Point", "coordinates": [ 36.37171, 2.13582 ] } },
{ "type": "Feature", "properties": { "Nat_ID": "2FC14", "Water Body Name": "Makalia Falls", "Sub-Region Office": "Naivasha", "Rating Curve": "No" }, "geometry": { "type": "Point", "coordinates": [ 36.37171, 2.13582 ] } },
{ "type": "Feature", "properties": { "Nat_ID": "2FC15", "Water Body Name": "Enderit", "Sub-Region Office": "Naivasha", "Rating Curve": "No" }, "geometry": { "type": "Point", "coordinates": [ 36.37171, 2.13582 ] } },
{ "type": "Feature", "properties": { "Nat_ID": "2FC16", "Water Body Name": "Njoro", "Sub-Region Office": "Naivasha", "Rating Curve": "Yes" }, "geometry": { "type": "Point", "coordinates": [ 36.08407, -0.32179 ] } },
{ "type": "Feature", "properties": { "Nat_ID": "2FC17", "Water Body Name": "Baharini Spring", "Sub-Region Office": "Naivasha", "Rating Curve": "Yes" }, "geometry": { "type": "Point", "coordinates": [ 36.37171, 2.13582 ] } },
{ "type": "Feature", "properties": { "Nat_ID": "2FC18", "Water Body Name": "Njoro", "Sub-Region Office": "Naivasha", "Rating Curve": "Yes" }, "geometry": { "type": "Point", "coordinates": [ 35.91136, -0.39801 ] } },
{ "type": "Feature", "properties": { "Nat_ID": "2FC19", "Water Body Name": "Njoro", "Sub-Region Office": "Naivasha", "Rating Curve": "No" }, "geometry": { "type": "Point", "coordinates": [ 35.94184, -0.3721 ] } },
{ "type": "Feature", "properties": { "Nat_ID": "2GA01", "Water Body Name": "Gilgil", "Sub-Region Office": "Naivasha", "Rating Curve": "Yes" }, "geometry": { "type": "Point", "coordinates": [ 36.36072, -0.57172 ] } },
{ "type": "Feature", "properties": { "Nat_ID": "2GA03", "Water Body Name": "Gilgil", "Sub-Region Office": "Naivasha", "Rating Curve": "Yes" }, "geometry": { "type": "Point", "coordinates": [ 36.34625, -0.49343 ] } },
{ "type": "Feature", "properties": { "Nat_ID": "2GA04", "Water Body Name": "Little Gilgil", "Sub-Region Office": "Naivasha", "Rating Curve": "No" }, "geometry": { "type": "Point", "coordinates": [ 36.37171, 2.13582 ] } },
{ "type": "Feature", "properties": { "Nat_ID": "2GA05", "Water Body Name": "Gilgil", "Sub-Region Office": "Naivasha", "Rating Curve": "Yes" }, "geometry": { "type": "Point", "coordinates": [ 36.37972, -0.62722 ] } },
{ "type": "Feature", "properties": { "Nat_ID": "2GA06", "Water Body Name": "Little Gilgil", "Sub-Region Office": "Kabarnet", "Rating Curve": "No" }, "geometry": { "type": "Point", "coordinates": [ 36.3655, -0.49735 ] } },
{ "type": "Feature", "properties": { "Nat_ID": "2GB01", "Water Body Name": "Malewa", "Sub-Region Office": "Naivasha", "Rating Curve": "Yes" }, "geometry": { "type": "Point", "coordinates": [ 36.40426, -0.56643 ] } },
{ "type": "Feature", "properties": { "Nat_ID": "2GB02", "Water Body Name": "Malewa", "Sub-Region Office": "Naivasha", "Rating Curve": "No" }, "geometry": { "type": "Point", "coordinates": [ 36.40644, -0.41001 ] } },
{ "type": "Feature", "properties": { "Nat_ID": "2GB03", "Water Body Name": "Malewa", "Sub-Region Office": "Naivasha", "Rating Curve": "Yes" }, "geometry": { "type": "Point", "coordinates": [ 36.37171, 2.13582 ] } },
{ "type": "Feature", "properties": { "Nat_ID": "2GB04", "Water Body Name": "Wanjohi", "Sub-Region Office": "Naivasha", "Rating Curve": "Yes" }, "geometry": { "type": "Point", "coordinates": [ 36.48447, -0.27928 ] } },
{ "type": "Feature", "properties": { "Nat_ID": "2GB05", "Water Body Name": "Malewa", "Sub-Region Office": "Naivasha", "Rating Curve": "Yes" }, "geometry": { "type": "Point", "coordinates": [ 36.39754, -0.49696 ] } },
{ "type": "Feature", "properties": { "Nat_ID": "2GB06", "Water Body Name": "Melewa", "Sub-Region Office": "Naivasha", "Rating Curve": "No" }, "geometry": { "type": "Point", "coordinates": [ 36.41306, -0.25639 ] } },
{ "type": "Feature", "properties": { "Nat_ID": "2GB07", "Water Body Name": "Melewa", "Sub-Region Office": "Naivasha", "Rating Curve": "Yes" }, "geometry": { "type": "Point", "coordinates": [ 36.41389, -0.31806 ] } },
{ "type": "Feature", "properties": { "Nat_ID": "2GB08", "Water Body Name": "Malewa", "Sub-Region Office": "Naivasha", "Rating Curve": "No" }, "geometry": { "type": "Point", "coordinates": [ 36.37171, 2.13582 ] } },
{ "type": "Feature", "properties": { "Nat_ID": "2GB09", "Water Body Name": "Wanjohi", "Sub-Region Office": "Naivasha", "Rating Curve": "No" }, "geometry": { "type": "Point", "coordinates": [ 36.48351, -0.27632 ] } },
{ "type": "Feature", "properties": { "Nat_ID": "2GC01", "Water Body Name": "Nandarasi", "Sub-Region Office": "Naivasha", "Rating Curve": "Yes" }, "geometry": { "type": "Point", "coordinates": [ 36.61667, -0.49083 ] } },
{ "type": "Feature", "properties": { "Nat_ID": "2GC04", "Water Body Name": "Turasha", "Sub-Region Office": "Naivasha", "Rating Curve": "Yes" }, "geometry": { "type": "Point", "coordinates": [ 36.41907, -0.48164 ] } },
{ "type": "Feature", "properties": { "Nat_ID": "2GC05", "Water Body Name": "Nandarasi", "Sub-Region Office": "Naivasha", "Rating Curve": "Yes" }, "geometry": { "type": "Point", "coordinates": [ 36.5604, -0.55337 ] } },
{ "type": "Feature", "properties": { "Nat_ID": "2GC06", "Water Body Name": "Sasini", "Sub-Region Office": "Naivasha", "Rating Curve": "Yes" }, "geometry": { "type": "Point", "coordinates": [ 36.55556, -0.52417 ] } },
{ "type": "Feature", "properties": { "Nat_ID": "2GC07", "Water Body Name": "Turasha", "Sub-Region Office": "Naivasha", "Rating Curve": "Yes" }, "geometry": { "type": "Point", "coordinates": [ 36.63667, -0.64444 ] } },
{ "type": "Feature", "properties": { "Nat_ID": "2GC08", "Water Body Name": "Muruaki", "Sub-Region Office": "Naivasha", "Rating Curve": "No" }, "geometry": { "type": "Point", "coordinates": [ 36.49028, -0.57139 ] } },
{ "type": "Feature", "properties": { "Nat_ID": "2GC09", "Water Body Name": "Turasha", "Sub-Region Office": "Naivasha", "Rating Curve": "No" }, "geometry": { "type": "Point", "coordinates": [ 36.5575, -0.61306 ] } },
{ "type": "Feature", "properties": { "Nat_ID": "2GC10", "Water Body Name": "Mukungi", "Sub-Region Office": "Naivasha", "Rating Curve": "Yes" }, "geometry": { "type": "Point", "coordinates": [ 36.53333, -0.52222 ] } },
{ "type": "Feature", "properties": { "Nat_ID": "2GD01", "Water Body Name": "Lake Naivasha", "Sub-Region Office": "Naivasha", "Rating Curve": "No" }, "geometry": { "type": "Point", "coordinates": [ 36.37171, 2.13582 ] } },
{ "type": "Feature", "properties": { "Nat_ID": "2GD02", "Water Body Name": "Karati", "Sub-Region Office": "Naivasha", "Rating Curve": "Yes" }, "geometry": { "type": "Point", "coordinates": [ 36.42033, -0.69678 ] } },
{ "type": "Feature", "properties": { "Nat_ID": "2GD03", "Water Body Name": "Lake Naivasha", "Sub-Region Office": "Naivasha", "Rating Curve": "No" }, "geometry": { "type": "Point", "coordinates": [ 36.37171, 2.13582 ] } },
{ "type": "Feature", "properties": { "Nat_ID": "2GD04", "Water Body Name": "Lake Naivasha", "Sub-Region Office": "Naivasha", "Rating Curve": "No" }, "geometry": { "type": "Point", "coordinates": [ 36.26944, -0.81667 ] } },
{ "type": "Feature", "properties": { "Nat_ID": "2GD05", "Water Body Name": "Karati", "Sub-Region Office": "Naivasha", "Rating Curve": "No" }, "geometry": { "type": "Point", "coordinates": [ 36.37171, 2.13582 ] } },
{ "type": "Feature", "properties": { "Nat_ID": "2GD06", "Water Body Name": "Lake Naivasha", "Sub-Region Office": "Naivasha", "Rating Curve": "No" }, "geometry": { "type": "Point", "coordinates": [ 36.41352, -0.77302 ] } },
{ "type": "Feature", "properties": { "Nat_ID": "2GD07", "Water Body Name": "Karati", "Sub-Region Office": "Naivasha", "Rating Curve": "Yes" }, "geometry": { "type": "Point", "coordinates": [ 36.53704, -0.73042 ] } },
{ "type": "Feature", "properties": { "Nat_ID": "2GD08", "Water Body Name": "Lake Naivasha", "Sub-Region Office": "Naivasha", "Rating Curve": "No" }, "geometry": { "type": "Point", "coordinates": [ 36.37171, 2.13582 ] } },
{ "type": "Feature", "properties": { "Nat_ID": "2H01", "Water Body Name": "Tong Tongi", "Sub-Region Office": "Narok", "Rating Curve": "Yes" }, "geometry": { "type": "Point", "coordinates": [ 36.5925, -0.91972 ] } },
{ "type": "Feature", "properties": { "Nat_ID": "2H02", "Water Body Name": "Little Kedong", "Sub-Region Office": "Narok", "Rating Curve": "Yes" }, "geometry": { "type": "Point", "coordinates": [ 36.56028, -1.06722 ] } },
{ "type": "Feature", "properties": { "Nat_ID": "2H03", "Water Body Name": "Little Kedong", "Sub-Region Office": "Narok", "Rating Curve": "No" }, "geometry": { "type": "Point", "coordinates": [ 36.5897, -1.06042 ] } },
{ "type": "Feature", "properties": { "Nat_ID": "2JICA1", "Water Body Name": "Lake Magadi", "Sub-Region Office": "Narok", "Rating Curve": null }, "geometry": { "type": "Point", "coordinates": [ 36.2575, -1.94681 ] } },
{ "type": "Feature", "properties": { "Nat_ID": "2K01", "Water Body Name": "Ewaso Nyiro", "Sub-Region Office": "Narok", "Rating Curve": "Yes" }, "geometry": { "type": "Point", "coordinates": [ 35.75907, -1.15367 ] } },
{ "type": "Feature", "properties": { "Nat_ID": "2K03", "Water Body Name": "Narok", "Sub-Region Office": "Narok", "Rating Curve": "Yes" }, "geometry": { "type": "Point", "coordinates": [ 35.86289, -1.08662 ] } },
{ "type": "Feature", "properties": { "Nat_ID": "2K03B", "Water Body Name": "Seyabei", "Sub-Region Office": "Narok", "Rating Curve": null }, "geometry": { "type": "Point", "coordinates": [ 35.87091, -1.09284 ] } },
{ "type": "Feature", "properties": { "Nat_ID": "2K04", "Water Body Name": "Ewaso Nyiro", "Sub-Region Office": "Narok", "Rating Curve": "Yes" }, "geometry": { "type": "Point", "coordinates": [ 36.10258, -1.84947 ] } },
{ "type": "Feature", "properties": { "Nat_ID": "2K06", "Water Body Name": "Seyabei", "Sub-Region Office": "Narok", "Rating Curve": "Yes" }, "geometry": { "type": "Point", "coordinates": [ 35.95415, -1.09204 ] } },
{ "type": "Feature", "properties": { "Nat_ID": "2K07", "Water Body Name": "Naroosura", "Sub-Region Office": "Narok", "Rating Curve": "No" }, "geometry": { "type": "Point", "coordinates": [ 35.85, -1.53333 ] } },
{ "type": "Feature", "properties": { "Nat_ID": "2K08", "Water Body Name": "Ewaso Nyiro", "Sub-Region Office": "Narok", "Rating Curve": "Yes" }, "geometry": { "type": "Point", "coordinates": [ 35.65, -0.96667 ] } },
{ "type": "Feature", "properties": { "Nat_ID": "2K09", "Water Body Name": "Upper Ewaso Ngiro", "Sub-Region Office": "Narok", "Rating Curve": "No" }, "geometry": { "type": "Point", "coordinates": [ 35.66909, -0.99957 ] } },
{ "type": "Feature", "properties": { "Nat_ID": "2K10", "Water Body Name": "Mosiro", "Sub-Region Office": "Narok", "Rating Curve": "No" }, "geometry": { "type": "Point", "coordinates": [ 36.06805, -1.46016 ] } },
{ "type": "Feature", "properties": { "Nat_ID": "2K11", "Water Body Name": "Entasopia", "Sub-Region Office": "Narok", "Rating Curve": "Yes" }, "geometry": { "type": "Point", "coordinates": [ 36.37171, 2.13582 ] } },
{ "type": "Feature", "properties": { "Nat_ID": "2K12", "Water Body Name": "Oloibortoto", "Sub-Region Office": "Narok", "Rating Curve": "Yes" }, "geometry": { "type": "Point", "coordinates": [ 36.37171, 2.13582 ] } },
{ "type": "Feature", "properties": { "Nat_ID": "2K13", "Water Body Name": "Sampu", "Sub-Region Office": "Narok", "Rating Curve": "No" }, "geometry": { "type": "Point", "coordinates": [ 36.37171, 2.13582 ] } },
{ "type": "Feature", "properties": { "Nat_ID": "2K14", "Water Body Name": "Pegase", "Sub-Region Office": "Narok", "Rating Curve": "No" }, "geometry": { "type": "Point", "coordinates": [ 36.37171, 2.13582 ] } },
{ "type": "Feature", "properties": { "Nat_ID": "2K15", "Water Body Name": "Gebus", "Sub-Region Office": "Narok", "Rating Curve": "No" }, "geometry": { "type": "Point", "coordinates": [ 36.37171, 2.13582 ] } },
{ "type": "Feature", "properties": { "Nat_ID": "2K16", "Water Body Name": "Shompole", "Sub-Region Office": "Narok", "Rating Curve": "No" }, "geometry": { "type": "Point", "coordinates": [ 36.09329, -2.09348 ] } },
{ "type": "Feature", "properties": { "Nat_ID": "2K17", "Water Body Name": "Enosogami", "Sub-Region Office": "Narok", "Rating Curve": "No" }, "geometry": { "type": "Point", "coordinates": [ 35.62243, -0.91209 ] } },
{ "type": "Feature", "properties": { "Nat_ID": "2K18", "Water Body Name": "Upper Ewaso Ngiro South", "Sub-Region Office": "Narok", "Rating Curve": "No" }, "geometry": { "type": "Point", "coordinates": [ 35.62984, -0.91184 ] } },
{ "type": "Feature", "properties": { "Nat_ID": "5AA01", "Water Body Name": "Ewaso Narok", "Sub-Region Office": "Rumuruti", "Rating Curve": "Yes" }, "geometry": { "type": "Point", "coordinates": [ 36.375, 0.03889 ] } },
{ "type": "Feature", "properties": { "Nat_ID": "5AA01A", "Water Body Name": "Ewaso Narok", "Sub-Region Office": "Rumuruti", "Rating Curve": null }, "geometry": { "type": "Point", "coordinates": [ 36.37239, 0.04297 ] } },
{ "type": "Feature", "properties": { "Nat_ID": "5AA02A", "Water Body Name": "Equator", "Sub-Region Office": "Rumuruti", "Rating Curve": "Yes" }, "geometry": { "type": "Point", "coordinates": [ 36.37417, 0.02833 ] } },
{ "type": "Feature", "properties": { "Nat_ID": "5AA03", "Water Body Name": "Lake Ol Bolossat", "Sub-Region Office": "Rumuruti", "Rating Curve": "No" }, "geometry": { "type": "Point", "coordinates": [ 36.43028, 0.1575 ] } },
{ "type": "Feature", "properties": { "Nat_ID": "5AA04", "Water Body Name": "Equator", "Sub-Region Office": "Rumuruti", "Rating Curve": "Yes" }, "geometry": { "type": "Point", "coordinates": [ 36.35, 0.0225 ] } },
{ "type": "Feature", "properties": { "Nat_ID": "5AA05", "Water Body Name": "Equator", "Sub-Region Office": "Rumuruti", "Rating Curve": "Yes" }, "geometry": { "type": "Point", "coordinates": [ 36.36513, 0.01903 ] } },
{ "type": "Feature", "properties": { "Nat_ID": "5AA06", "Water Body Name": "Oraimutia", "Sub-Region Office": "Rumuruti", "Rating Curve": "Yes" }, "geometry": { "type": "Point", "coordinates": [ 36.35583, 0.03222 ] } },
{ "type": "Feature", "properties": { "Nat_ID": "5AA07", "Water Body Name": "Nyahururu Dam", "Sub-Region Office": "Rumuruti", "Rating Curve": "No" }, "geometry": { "type": "Point", "coordinates": [ 36.31861, 0.035 ] } },
{ "type": "Feature", "properties": { "Nat_ID": "5AA10", "Water Body Name": "Nyahururu", "Sub-Region Office": "Rumuruti", "Rating Curve": "Yes" }, "geometry": { "type": "Point", "coordinates": [ 36.35056, 0.02667 ] } },
{ "type": "Feature", "properties": { "Nat_ID": "5AA11", "Water Body Name": "Ewaso Narok", "Sub-Region Office": "Rumuruti", "Rating Curve": "Yes" }, "geometry": { "type": "Point", "coordinates": [ 36.4, 0.02 ] } },
{ "type": "Feature", "properties": { "Nat_ID": "5AA12", "Water Body Name": "Lake Ol Bolossat", "Sub-Region Office": "Rumuruti", "Rating Curve": "No" }, "geometry": { "type": "Point", "coordinates": [ 36.39667, 0.00833 ] } },
{ "type": "Feature", "properties": { "Nat_ID": "5AA13", "Water Body Name": "Lake Ol Bolossat", "Sub-Region Office": "Rumuruti", "Rating Curve": "No" }, "geometry": { "type": "Point", "coordinates": [ 36.44277, -0.1528 ] } },
{ "type": "Feature", "properties": { "Nat_ID": "5AA16", "Water Body Name": "Lake Ol Bolossat", "Sub-Region Office": "Rumuruti", "Rating Curve": "No" }, "geometry": { "type": "Point", "coordinates": [ 36.43333, 0.16944 ] } },
{ "type": "Feature", "properties": { "Nat_ID": "5AA17", "Water Body Name": "Ewaso Narok", "Sub-Region Office": "Rumuruti", "Rating Curve": "Yes" }, "geometry": { "type": "Point", "coordinates": [ 36.36944, 0.04778 ] } },
{ "type": "Feature", "properties": { "Nat_ID": "5AB01", "Water Body Name": "Pesi", "Sub-Region Office": "Rumuruti", "Rating Curve": "Yes" }, "geometry": { "type": "Point", "coordinates": [ 36.60528, 0.135 ] } },
{ "type": "Feature", "properties": { "Nat_ID": "5AB02", "Water Body Name": "Pesi", "Sub-Region Office": "Rumuruti", "Rating Curve": "Yes" }, "geometry": { "type": "Point", "coordinates": [ 36.50597, -0.19063 ] } },
{ "type": "Feature", "properties": { "Nat_ID": "5AB03", "Water Body Name": "Pesi", "Sub-Region Office": "Rumuruti", "Rating Curve": "Yes" }, "geometry": { "type": "Point", "coordinates": [ 36.58139, 0.09528 ] } },
{ "type": "Feature", "properties": { "Nat_ID": "5AB04", "Water Body Name": "Pesi", "Sub-Region Office": "Rumuruti", "Rating Curve": "Yes" }, "geometry": { "type": "Point", "coordinates": [ 36.52996, -0.06294 ] } },
{ "type": "Feature", "properties": { "Nat_ID": "5AB05", "Water Body Name": "Pesi At Ndaragwa", "Sub-Region Office": "Rumuruti", "Rating Curve": "Yes" }, "geometry": { "type": "Point", "coordinates": [ 36.59583, 0.1375 ] } },
{ "type": "Feature", "properties": { "Nat_ID": "5AC01", "Water Body Name": "Ewaso Narok", "Sub-Region Office": "Rumuruti", "Rating Curve": "No" }, "geometry": { "type": "Point", "coordinates": [ 36.54, 0.26 ] } },
{ "type": "Feature", "properties": { "Nat_ID": "5AC02", "Water Body Name": "Ewaso Narok", "Sub-Region Office": "Rumuruti", "Rating Curve": "Yes" }, "geometry": { "type": "Point", "coordinates": [ 36.54111, 0.26194 ] } },
{ "type": "Feature", "properties": { "Nat_ID": "5AC03", "Water Body Name": "Ewaso Narok", "Sub-Region Office": "Rumuruti", "Rating Curve": "Yes" }, "geometry": { "type": "Point", "coordinates": [ 36.54667, 0.26667 ] } },
{ "type": "Feature", "properties": { "Nat_ID": "5AC04", "Water Body Name": "Ewaso Narok", "Sub-Region Office": "Rumuruti", "Rating Curve": "Yes" }, "geometry": { "type": "Point", "coordinates": [ 36.64722, 0.3775 ] } },
{ "type": "Feature", "properties": { "Nat_ID": "5AC06", "Water Body Name": "Ewaso Narok", "Sub-Region Office": "Rumuruti", "Rating Curve": "Yes" }, "geometry": { "type": "Point", "coordinates": [ 36.59111, 0.27833 ] } },
{ "type": "Feature", "properties": { "Nat_ID": "5AC07", "Water Body Name": "Ewaso Narok", "Sub-Region Office": "Rumuruti", "Rating Curve": "Yes" }, "geometry": { "type": "Point", "coordinates": [ 36.65556, 0.37333 ] } },
{ "type": "Feature", "properties": { "Nat_ID": "5AC08", "Water Body Name": "Ewaso Narok", "Sub-Region Office": "Rumuruti", "Rating Curve": "Yes" }, "geometry": { "type": "Point", "coordinates": [ 36.86667, 0.52917 ] } },
{ "type": "Feature", "properties": { "Nat_ID": "5AC09", "Water Body Name": "Ewaso Narok", "Sub-Region Office": "Rumuruti", "Rating Curve": "No" }, "geometry": { "type": "Point", "coordinates": [ 36.85833, 0.52639 ] } },
{ "type": "Feature", "properties": { "Nat_ID": "5AC10", "Water Body Name": "Ewaso Narok", "Sub-Region Office": "Rumuruti", "Rating Curve": "Yes" }, "geometry": { "type": "Point", "coordinates": [ 36.72499, 0.43605 ] } },
{ "type": "Feature", "properties": { "Nat_ID": "5AC11", "Water Body Name": "Ewaso Narok", "Sub-Region Office": "Rumuruti", "Rating Curve": "Yes" }, "geometry": { "type": "Point", "coordinates": [ 36.53972, 0.25806 ] } },
{ "type": "Feature", "properties": { "Nat_ID": "5AC12", "Water Body Name": "Aiyam", "Sub-Region Office": "Rumuruti", "Rating Curve": "No" }, "geometry": { "type": "Point", "coordinates": [ 36.56806, 0.32361 ] } },
{ "type": "Feature", "properties": { "Nat_ID": "5AC13", "Water Body Name": "Melwa", "Sub-Region Office": "Rumuruti", "Rating Curve": "Yes" }, "geometry": { "type": "Point", "coordinates": [ 36.46667, 0.21667 ] } },
{ "type": "Feature", "properties": { "Nat_ID": "5AC14", "Water Body Name": "Morogo", "Sub-Region Office": "Rumuruti", "Rating Curve": "No" }, "geometry": { "type": "Point", "coordinates": [ 36.56583, 0.24167 ] } },
{ "type": "Feature", "properties": { "Nat_ID": "5AC15", "Water Body Name": "Ewaso Narok", "Sub-Region Office": "Rumuruti", "Rating Curve": "Yes" }, "geometry": { "type": "Point", "coordinates": [ 36.53863, 0.25559 ] } },
{ "type": "Feature", "properties": { "Nat_ID": "5AD01", "Water Body Name": "Mutara", "Sub-Region Office": "Rumuruti", "Rating Curve": "Yes" }, "geometry": { "type": "Point", "coordinates": [ 36.55333, -0.06667 ] } },
{ "type": "Feature", "properties": { "Nat_ID": "5AD03", "Water Body Name": "Mutara", "Sub-Region Office": "Rumuruti", "Rating Curve": "No" }, "geometry": { "type": "Point", "coordinates": [ 36.81111, 0.46111 ] } },
{ "type": "Feature", "properties": { "Nat_ID": "5AD04", "Water Body Name": "Mutara", "Sub-Region Office": "Rumuruti", "Rating Curve": "Yes" }, "geometry": { "type": "Point", "coordinates": [ 36.66461, 0.08002 ] } },
{ "type": "Feature", "properties": { "Nat_ID": "5C01", "Water Body Name": "Lemisigio Dam", "Sub-Region Office": "Rumuruti", "Rating Curve": "No" }, "geometry": { "type": "Point", "coordinates": [ 36.67861, 1.05417 ] } },
{ "type": "Feature", "properties": { "Nat_ID": "5C01B", "Water Body Name": "Lemisigio Dam", "Sub-Region Office": "Rumuruti", "Rating Curve": "No" }, "geometry": { "type": "Point", "coordinates": [ 36.67806, 1.05639 ] } },
{ "type": "Feature", "properties": { "Nat_ID": "5C02", "Water Body Name": "Loikas", "Sub-Region Office": "Rumuruti", "Rating Curve": "No" }, "geometry": { "type": "Point", "coordinates": [ 36.70778, 1.175 ] } },
{ "type": "Feature", "properties": { "Nat_ID": "5C03", "Water Body Name": "Bawa Springs", "Sub-Region Office": "Rumuruti", "Rating Curve": "No" }, "geometry": { "type": "Point", "coordinates": [ 36.81944, 1.03056 ] } },
{ "type": "Feature", "properties": { "Nat_ID": "5C04", "Water Body Name": "Muramur Dam", "Sub-Region Office": "Rumuruti", "Rating Curve": "No" }, "geometry": { "type": "Point", "coordinates": [ 36.71528, 1.01389 ] } },
{ "type": "Feature", "properties": { "Nat_ID": "5C05", "Water Body Name": "Ndedero Dam", "Sub-Region Office": "Rumuruti", "Rating Curve": "No" }, "geometry": { "type": "Point", "coordinates": [ 36.81528, 0.99444 ] } },
{ "type": "Feature", "properties": { "Nat_ID": "5C06", "Water Body Name": "Engare Narok Dam", "Sub-Region Office": "Rumuruti", "Rating Curve": "No" }, "geometry": { "type": "Point", "coordinates": [ 36.73389, 0.93056 ] } },
{ "type": "Feature", "properties": { "Nat_ID": "4AA01", "Water Body Name": "Sagana", "Sub-Region Office": "Upper Tana", "Rating Curve": "Yes" }, "geometry": { "type": "Point", "coordinates": [ 37.06667, -0.36667 ] } },
{ "type": "Feature", "properties": { "Nat_ID": "4AA02", "Water Body Name": "Thego", "Sub-Region Office": "Upper Tana", "Rating Curve": "Yes" }, "geometry": { "type": "Point", "coordinates": [ 37.04766, -0.34597 ] } },
{ "type": "Feature", "properties": { "Nat_ID": "4AA04", "Water Body Name": "Nairobi", "Sub-Region Office": "Upper Tana", "Rating Curve": "Yes" }, "geometry": { "type": "Point", "coordinates": [ 37.01667, -0.4 ] } },
{ "type": "Feature", "properties": { "Nat_ID": "4AA05", "Water Body Name": "Sagana", "Sub-Region Office": "Upper Tana", "Rating Curve": "Yes" }, "geometry": { "type": "Point", "coordinates": [ 37.0434, -0.44566 ] } },